<kml xmlns="http://www.opengis.net/kml/2.2"><Document><name>Guaging Stations</name><Placemark targetId="0"><name>CHATTOOGA RIVER AT BURRELLS FORD, NR PINE MTN, GA</name><ExtendedData/><Point><coordinates>-83.1161667,34.97452778</coordinates></Point><Style id="ID"><IconStyle id="ID"><Icon><href>http://maps.google.com/mapfiles/kml/paddle/purple-circle.png</href></Icon><color>50DC783C</color></IconStyle></Style></Placemark><Placemark targetId="0"><name>CHATTOOGA RIVER AT BURRELLS FORD, NR PINE MTN, GA</name><ExtendedData/><Point><coordinates>-83.1161667,34.97452778</coordinates></Point><Style id="ID"><IconStyle id="ID"><Icon><href>http://maps.google.com/mapfiles/kml/paddle/purple-circle.png</href></Icon><color>50DC783C</color></IconStyle></Style></Placemark><Placemark targetId="0"><name>TALLULAH RIVER NEAR CLAYTON, GA</name><ExtendedData/><Point><coordinates>-83.530441,34.89037075</coordinates></Point><Style id="ID"><IconStyle id="ID"><Icon><href>http://maps.google.com/mapfiles/kml/paddle/purple-circle.png</href></Icon><color>50DC783C</color></IconStyle></Style></Placemark><Placemark targetId="0"><name>TALLULAH RIVER NEAR CLAYTON, GA</name><ExtendedData/><Point><coordinates>-83.530441,34.89037075</coordinates></Point><Style id="ID"><IconStyle id="ID"><Icon><href>http://maps.google.com/mapfiles/kml/paddle/purple-circle.png</href></Icon><color>50DC783C</color></IconStyle></Style></Placemark><Placemark targetId="0"><name>TALLULAH R AT TERRORA PWRHSE, NR TALLULAH FALLS,GA</name><ExtendedData/><Point><coordinates>-83.405,34.75027778</coordinates></Point><Style id="ID"><IconStyle id="ID"><Icon><href>http://maps.google.com/mapfiles/kml/paddle/purple-circle.png</href></Icon><color>50DC783C</color></IconStyle></Style></Placemark><Placemark targetId="0"><name>TALLULAH RIVER AB POWERHOUSE, NR TALLULAH FALLS,GA</name><ExtendedData/><Point><coordinates>-83.3757198,34.73203858</coordinates></Point><Style id="ID"><IconStyle id="ID"><Icon><href>http://maps.google.com/mapfiles/kml/paddle/purple-circle.png</href></Icon><color>50DC783C</color></IconStyle></Style></Placemark><Placemark targetId="0"><name>TALLULAH RIVER AB POWERHOUSE, NR TALLULAH FALLS,GA</name><ExtendedData/><Point><coordinates>-83.3757198,34.73203858</coordinates></Point><Style id="ID"><IconStyle id="ID"><Icon><href>http://maps.google.com/mapfiles/kml/paddle/purple-circle.png</href></Icon><color>50DC783C</color></IconStyle></Style></Placemark><Placemark targetId="0"><name>BEAVERDAM CREEK ABOVE ELBERTON, GA</name><ExtendedData/><Point><coordinates>-82.89652898,34.16872037</coordinates></Point><Style id="ID"><IconStyle id="ID"><Icon><href>http://maps.google.com/mapfiles/kml/paddle/purple-circle.png</href></Icon><color>50DC783C</color></IconStyle></Style></Placemark><Placemark targetId="0"><name>BEAVERDAM CREEK ABOVE ELBERTON, GA</name><ExtendedData/><Point><coordinates>-82.89652898,34.16872037</coordinates></Point><Style id="ID"><IconStyle id="ID"><Icon><href>http://maps.google.com/mapfiles/kml/paddle/purple-circle.png</href></Icon><color>50DC783C</color></IconStyle></Style></Placemark><Placemark targetId="0"><name>GROVE CREEK AT US 441 AND GA 15 NEAR COMMERCE, GA</name><ExtendedData/><Point><coordinates>-83.4676667,34.2695</coordinates></Point><Style id="ID"><IconStyle id="ID"><Icon><href>http://maps.google.com/mapfiles/kml/paddle/purple-circle.png</href></Icon><color>50DC783C</color></IconStyle></Style></Placemark><Placemark targetId="0"><name>BROAD RIVER ABOVE CARLTON, GA</name><ExtendedData/><Point><coordinates>-83.0033333,34.0733333</coordinates></Point><Style id="ID"><IconStyle id="ID"><Icon><href>http://maps.google.com/mapfiles/kml/paddle/purple-circle.png</href></Icon><color>50DC783C</color></IconStyle></Style></Placemark><Placemark targetId="0"><name>BROAD RIVER ABOVE CARLTON, GA</name><ExtendedData/><Point><coordinates>-83.0033333,34.0733333</coordinates></Point><Style id="ID"><IconStyle id="ID"><Icon><href>http://maps.google.com/mapfiles/kml/paddle/purple-circle.png</href></Icon><color>50DC783C</color></IconStyle></Style></Placemark><Placemark targetId="0"><name>CLOUDS CREEK AT WATSON MILL PARK NR CARLTON, GA</name><ExtendedData/><Point><coordinates>-83.0693128,34.02066816</coordinates></Point><Style id="ID"><IconStyle id="ID"><Icon><href>http://maps.google.com/mapfiles/kml/paddle/purple-circle.png</href></Icon><color>50DC783C</color></IconStyle></Style></Placemark><Placemark targetId="0"><name>CLOUDS CREEK AT WATSON MILL PARK NR CARLTON, GA</name><ExtendedData/><Point><coordinates>-83.0693128,34.02066816</coordinates></Point><Style id="ID"><IconStyle id="ID"><Icon><href>http://maps.google.com/mapfiles/kml/paddle/purple-circle.png</href></Icon><color>50DC783C</color></IconStyle></Style></Placemark><Placemark targetId="0"><name>SOUTH FORK BROAD RIVER AT CARLTON, GA</name><ExtendedData/><Point><coordinates>-83.0090326,34.03150107</coordinates></Point><Style id="ID"><IconStyle id="ID"><Icon><href>http://maps.google.com/mapfiles/kml/paddle/purple-circle.png</href></Icon><color>50DC783C</color></IconStyle></Style></Placemark><Placemark targetId="0"><name>SOUTH FORK BROAD RIVER AT CARLTON, GA</name><ExtendedData/><Point><coordinates>-83.0090326,34.03150107</coordinates></Point><Style id="ID"><IconStyle id="ID"><Icon><href>http://maps.google.com/mapfiles/kml/paddle/purple-circle.png</href></Icon><color>50DC783C</color></IconStyle></Style></Placemark><Placemark targetId="0"><name>BROAD RIVER NEAR BELL, GA</name><ExtendedData/><Point><coordinates>-82.77,33.97416667</coordinates></Point><Style id="ID"><IconStyle id="ID"><Icon><href>http://maps.google.com/mapfiles/kml/paddle/purple-circle.png</href></Icon><color>50DC783C</color></IconStyle></Style></Placemark><Placemark targetId="0"><name>BROAD RIVER NEAR BELL, GA</name><ExtendedData/><Point><coordinates>-82.77,33.97416667</coordinates></Point><Style id="ID"><IconStyle id="ID"><Icon><href>http://maps.google.com/mapfiles/kml/paddle/purple-circle.png</href></Icon><color>50DC783C</color></IconStyle></Style></Placemark><Placemark targetId="0"><name>KETTLE CREEK NEAR WASHINGTON, GA</name><ExtendedData/><Point><coordinates>-82.857923,33.68262815</coordinates></Point><Style id="ID"><IconStyle id="ID"><Icon><href>http://maps.google.com/mapfiles/kml/paddle/purple-circle.png</href></Icon><color>50DC783C</color></IconStyle></Style></Placemark><Placemark targetId="0"><name>KETTLE CREEK NEAR WASHINGTON, GA</name><ExtendedData/><Point><coordinates>-82.857923,33.68262815</coordinates></Point><Style id="ID"><IconStyle id="ID"><Icon><href>http://maps.google.com/mapfiles/kml/paddle/purple-circle.png</href></Icon><color>50DC783C</color></IconStyle></Style></Placemark><Placemark targetId="0"><name>LITTLE RIVER NEAR WASHINGTON, GA</name><ExtendedData/><Point><coordinates>-82.7425,33.61277778</coordinates></Point><Style id="ID"><IconStyle id="ID"><Icon><href>http://maps.google.com/mapfiles/kml/paddle/purple-circle.png</href></Icon><color>50DC783C</color></IconStyle></Style></Placemark><Placemark targetId="0"><name>LITTLE RIVER NEAR WASHINGTON, GA</name><ExtendedData/><Point><coordinates>-82.7425,33.61277778</coordinates></Point><Style id="ID"><IconStyle id="ID"><Icon><href>http://maps.google.com/mapfiles/kml/paddle/purple-circle.png</href></Icon><color>50DC783C</color></IconStyle></Style></Placemark><Placemark targetId="0"><name>KIOKEE CREEK AT GA 104, NEAR EVANS, GA</name><ExtendedData/><Point><coordinates>-82.23262169,33.60096698</coordinates></Point><Style id="ID"><IconStyle id="ID"><Icon><href>http://maps.google.com/mapfiles/kml/paddle/purple-circle.png</href></Icon><color>50DC783C</color></IconStyle></Style></Placemark><Placemark targetId="0"><name>KIOKEE CREEK AT GA 104, NEAR EVANS, GA</name><ExtendedData/><Point><coordinates>-82.23262169,33.60096698</coordinates></Point><Style id="ID"><IconStyle id="ID"><Icon><href>http://maps.google.com/mapfiles/kml/paddle/purple-circle.png</href></Icon><color>50DC783C</color></IconStyle></Style></Placemark><Placemark targetId="0"><name>SAVANNAH RIVER NEAR EVANS, GA</name><ExtendedData/><Point><coordinates>-82.12317459,33.5929118</coordinates></Point><Style id="ID"><IconStyle id="ID"><Icon><href>http://maps.google.com/mapfiles/kml/paddle/purple-circle.png</href></Icon><color>50DC783C</color></IconStyle></Style></Placemark><Placemark targetId="0"><name>SAVANNAH RIVER ABOVE AUGUSTA CANAL NEAR BONAIR,GA</name><ExtendedData/><Point><coordinates>-82.0511111,33.56138889</coordinates></Point><Style id="ID"><IconStyle id="ID"><Icon><href>http://maps.google.com/mapfiles/kml/paddle/purple-circle.png</href></Icon><color>50DC783C</color></IconStyle></Style></Placemark><Placemark targetId="0"><name>SAVANNAH RIVER ABOVE AUGUSTA CANAL NEAR BONAIR,GA</name><ExtendedData/><Point><coordinates>-82.0511111,33.56138889</coordinates></Point><Style id="ID"><IconStyle id="ID"><Icon><href>http://maps.google.com/mapfiles/kml/paddle/purple-circle.png</href></Icon><color>50DC783C</color></IconStyle></Style></Placemark><Placemark targetId="0"><name>AUGUSTA CANAL NR AUGUSTA, GA (UPPER)</name><ExtendedData/><Point><coordinates>-82.0367836,33.54930154</coordinates></Point><Style id="ID"><IconStyle id="ID"><Icon><href>http://maps.google.com/mapfiles/kml/paddle/purple-circle.png</href></Icon><color>50DC783C</color></IconStyle></Style></Placemark><Placemark targetId="0"><name>AUGUSTA CANAL NR AUGUSTA, GA (UPPER)</name><ExtendedData/><Point><coordinates>-82.0367836,33.54930154</coordinates></Point><Style id="ID"><IconStyle id="ID"><Icon><href>http://maps.google.com/mapfiles/kml/paddle/purple-circle.png</href></Icon><color>50DC783C</color></IconStyle></Style></Placemark><Placemark targetId="0"><name>BUTLER CREEK BELOW 7TH AVENUE, AT FT. GORDON, GA</name><ExtendedData/><Point><coordinates>-82.1161111,33.4386111</coordinates></Point><Style id="ID"><IconStyle id="ID"><Icon><href>http://maps.google.com/mapfiles/kml/paddle/purple-circle.png</href></Icon><color>50DC783C</color></IconStyle></Style></Placemark><Placemark targetId="0"><name>BUTLER CREEK BELOW 7TH AVENUE, AT FT. GORDON, GA</name><ExtendedData/><Point><coordinates>-82.1161111,33.4386111</coordinates></Point><Style id="ID"><IconStyle id="ID"><Icon><href>http://maps.google.com/mapfiles/kml/paddle/purple-circle.png</href></Icon><color>50DC783C</color></IconStyle></Style></Placemark><Placemark targetId="0"><name>SAVANNAH RIVER AT AUGUSTA, GA</name><ExtendedData/><Point><coordinates>-81.94289329,33.3737518</coordinates></Point><Style id="ID"><IconStyle id="ID"><Icon><href>http://maps.google.com/mapfiles/kml/paddle/purple-circle.png</href></Icon><color>50DC783C</color></IconStyle></Style></Placemark><Placemark targetId="0"><name>SAVANNAH RIVER AT AUGUSTA, GA</name><ExtendedData/><Point><coordinates>-81.94289329,33.3737518</coordinates></Point><Style id="ID"><IconStyle id="ID"><Icon><href>http://maps.google.com/mapfiles/kml/paddle/purple-circle.png</href></Icon><color>50DC783C</color></IconStyle></Style></Placemark><Placemark targetId="0"><name>SPIRIT CREEK AT US 1, NEAR AUGUSTA, GA</name><ExtendedData/><Point><coordinates>-82.1387309,33.37319577</coordinates></Point><Style id="ID"><IconStyle id="ID"><Icon><href>http://maps.google.com/mapfiles/kml/paddle/purple-circle.png</href></Icon><color>50DC783C</color></IconStyle></Style></Placemark><Placemark targetId="0"><name>SPIRIT CREEK AT US 1, NEAR AUGUSTA, GA</name><ExtendedData/><Point><coordinates>-82.1387309,33.37319577</coordinates></Point><Style id="ID"><IconStyle id="ID"><Icon><href>http://maps.google.com/mapfiles/kml/paddle/purple-circle.png</href></Icon><color>50DC783C</color></IconStyle></Style></Placemark><Placemark targetId="0"><name>SAVANNAH RIVER NEAR WAYNESBORO, GA</name><ExtendedData/><Point><coordinates>-81.7548354,33.14987256</coordinates></Point><Style id="ID"><IconStyle id="ID"><Icon><href>http://maps.google.com/mapfiles/kml/paddle/purple-circle.png</href></Icon><color>50DC783C</color></IconStyle></Style></Placemark><Placemark targetId="0"><name>SAVANNAH RIVER NEAR WAYNESBORO, GA</name><ExtendedData/><Point><coordinates>-81.7548354,33.14987256</coordinates></Point><Style id="ID"><IconStyle id="ID"><Icon><href>http://maps.google.com/mapfiles/kml/paddle/purple-circle.png</href></Icon><color>50DC783C</color></IconStyle></Style></Placemark><Placemark targetId="0"><name>SAVANNAH R AT BURTONS FERRY BR NR MILLHAVEN, GA</name><ExtendedData/><Point><coordinates>-81.5026078,32.93904727</coordinates></Point><Style id="ID"><IconStyle id="ID"><Icon><href>http://maps.google.com/mapfiles/kml/paddle/purple-circle.png</href></Icon><color>50DC783C</color></IconStyle></Style></Placemark><Placemark targetId="0"><name>SAVANNAH R AT BURTONS FERRY BR NR MILLHAVEN, GA</name><ExtendedData/><Point><coordinates>-81.5026078,32.93904727</coordinates></Point><Style id="ID"><IconStyle id="ID"><Icon><href>http://maps.google.com/mapfiles/kml/paddle/purple-circle.png</href></Icon><color>50DC783C</color></IconStyle></Style></Placemark><Placemark targetId="0"><name>BRUSHY CREEK AT CAMPGROUND ROAD, NEAR WRENS, GA</name><ExtendedData/><Point><coordinates>-82.334291,33.18070175</coordinates></Point><Style id="ID"><IconStyle id="ID"><Icon><href>http://maps.google.com/mapfiles/kml/paddle/purple-circle.png</href></Icon><color>50DC783C</color></IconStyle></Style></Placemark><Placemark targetId="0"><name>BRUSHY CREEK AT CAMPGROUND ROAD, NEAR WRENS, GA</name><ExtendedData/><Point><coordinates>-82.334291,33.18070175</coordinates></Point><Style id="ID"><IconStyle id="ID"><Icon><href>http://maps.google.com/mapfiles/kml/paddle/purple-circle.png</href></Icon><color>50DC783C</color></IconStyle></Style></Placemark><Placemark targetId="0"><name>BRIER CREEK NEAR WAYNESBORO, GA</name><ExtendedData/><Point><coordinates>-81.9637281,33.1182057</coordinates></Point><Style id="ID"><IconStyle id="ID"><Icon><href>http://maps.google.com/mapfiles/kml/paddle/purple-circle.png</href></Icon><color>50DC783C</color></IconStyle></Style></Placemark><Placemark targetId="0"><name>BRIER CREEK NEAR WAYNESBORO, GA</name><ExtendedData/><Point><coordinates>-81.9637281,33.1182057</coordinates></Point><Style id="ID"><IconStyle id="ID"><Icon><href>http://maps.google.com/mapfiles/kml/paddle/purple-circle.png</href></Icon><color>50DC783C</color></IconStyle></Style></Placemark><Placemark targetId="0"><name>BRIER CREEK AT MILLHAVEN, GA</name><ExtendedData/><Point><coordinates>-81.6512217,32.93349199</coordinates></Point><Style id="ID"><IconStyle id="ID"><Icon><href>http://maps.google.com/mapfiles/kml/paddle/purple-circle.png</href></Icon><color>50DC783C</color></IconStyle></Style></Placemark><Placemark targetId="0"><name>BRIER CREEK AT MILLHAVEN, GA</name><ExtendedData/><Point><coordinates>-81.6512217,32.93349199</coordinates></Point><Style id="ID"><IconStyle id="ID"><Icon><href>http://maps.google.com/mapfiles/kml/paddle/purple-circle.png</href></Icon><color>50DC783C</color></IconStyle></Style></Placemark><Placemark targetId="0"><name>BEAVERDAM CREEK NEAR SARDIS, GA</name><ExtendedData/><Point><coordinates>-81.8153916,32.93765809</coordinates></Point><Style id="ID"><IconStyle id="ID"><Icon><href>http://maps.google.com/mapfiles/kml/paddle/purple-circle.png</href></Icon><color>50DC783C</color></IconStyle></Style></Placemark><Placemark targetId="0"><name>BEAVERDAM CREEK NEAR SARDIS, GA</name><ExtendedData/><Point><coordinates>-81.8153916,32.93765809</coordinates></Point><Style id="ID"><IconStyle id="ID"><Icon><href>http://maps.google.com/mapfiles/kml/paddle/purple-circle.png</href></Icon><color>50DC783C</color></IconStyle></Style></Placemark><Placemark targetId="0"><name>SAVANNAH RIVER NEAR ESTILL, SC</name><ExtendedData/><Point><coordinates>-81.4283333,32.70333333</coordinates></Point><Style id="ID"><IconStyle id="ID"><Icon><href>http://maps.google.com/mapfiles/kml/paddle/purple-circle.png</href></Icon><color>50DC783C</color></IconStyle></Style></Placemark><Placemark targetId="0"><name>SAVANNAH RIVER NEAR ESTILL, SC</name><ExtendedData/><Point><coordinates>-81.4283333,32.70333333</coordinates></Point><Style id="ID"><IconStyle id="ID"><Icon><href>http://maps.google.com/mapfiles/kml/paddle/purple-circle.png</href></Icon><color>50DC783C</color></IconStyle></Style></Placemark><Placemark targetId="0"><name>SAVANNAH RIVER NEAR CLYO, GA</name><ExtendedData/><Point><coordinates>-81.26871649,32.52823709</coordinates></Point><Style id="ID"><IconStyle id="ID"><Icon><href>http://maps.google.com/mapfiles/kml/paddle/purple-circle.png</href></Icon><color>50DC783C</color></IconStyle></Style></Placemark><Placemark targetId="0"><name>SAVANNAH RIVER NEAR CLYO, GA</name><ExtendedData/><Point><coordinates>-81.26871649,32.52823709</coordinates></Point><Style id="ID"><IconStyle id="ID"><Icon><href>http://maps.google.com/mapfiles/kml/paddle/purple-circle.png</href></Icon><color>50DC783C</color></IconStyle></Style></Placemark><Placemark targetId="0"><name>EBENEZER CREEK AT SPRINGFIELD, GA</name><ExtendedData/><Point><coordinates>-81.2973323,32.36574688</coordinates></Point><Style id="ID"><IconStyle id="ID"><Icon><href>http://maps.google.com/mapfiles/kml/paddle/purple-circle.png</href></Icon><color>50DC783C</color></IconStyle></Style></Placemark><Placemark targetId="0"><name>EBENEZER CREEK AT SPRINGFIELD, GA</name><ExtendedData/><Point><coordinates>-81.2973323,32.36574688</coordinates></Point><Style id="ID"><IconStyle id="ID"><Icon><href>http://maps.google.com/mapfiles/kml/paddle/purple-circle.png</href></Icon><color>50DC783C</color></IconStyle></Style></Placemark><Placemark targetId="0"><name>BEAR CREEK AT HICKORY BEND, NEAR RINCON, GA</name><ExtendedData/><Point><coordinates>-81.1472056,32.34543056</coordinates></Point><Style id="ID"><IconStyle id="ID"><Icon><href>http://maps.google.com/mapfiles/kml/paddle/purple-circle.png</href></Icon><color>50DC783C</color></IconStyle></Style></Placemark><Placemark targetId="0"><name>ABERCORN CREEK NEAR SAVANNAH,GA</name><ExtendedData/><Point><coordinates>-81.1781687,32.2557537</coordinates></Point><Style id="ID"><IconStyle id="ID"><Icon><href>http://maps.google.com/mapfiles/kml/paddle/purple-circle.png</href></Icon><color>50DC783C</color></IconStyle></Style></Placemark><Placemark targetId="0"><name>ABERCORN CREEK NEAR SAVANNAH,GA</name><ExtendedData/><Point><coordinates>-81.1781687,32.2557537</coordinates></Point><Style id="ID"><IconStyle id="ID"><Icon><href>http://maps.google.com/mapfiles/kml/paddle/purple-circle.png</href></Icon><color>50DC783C</color></IconStyle></Style></Placemark><Placemark targetId="0"><name>ABERCORN CREEK AT MOUTH NEAR SAVANNAH, GA</name><ExtendedData/><Point><coordinates>-81.1536111,32.24916667</coordinates></Point><Style id="ID"><IconStyle id="ID"><Icon><href>http://maps.google.com/mapfiles/kml/paddle/purple-circle.png</href></Icon><color>50DC783C</color></IconStyle></Style></Placemark><Placemark targetId="0"><name>SAVANNAH RIVER (I-95) NEAR PORT WENTWORTH, GA</name><ExtendedData/><Point><coordinates>-81.1512239,32.2357548</coordinates></Point><Style id="ID"><IconStyle id="ID"><Icon><href>http://maps.google.com/mapfiles/kml/paddle/purple-circle.png</href></Icon><color>50DC783C</color></IconStyle></Style></Placemark><Placemark targetId="0"><name>SAVANNAH RIVER AT GA 25, AT PORT WENTWORTH, GA</name><ExtendedData/><Point><coordinates>-81.1537237,32.1660358</coordinates></Point><Style id="ID"><IconStyle id="ID"><Icon><href>http://maps.google.com/mapfiles/kml/paddle/purple-circle.png</href></Icon><color>50DC783C</color></IconStyle></Style></Placemark><Placemark targetId="0"><name>SAVANNAH RIVER AT GA 25, AT PORT WENTWORTH, GA</name><ExtendedData/><Point><coordinates>-81.1537237,32.1660358</coordinates></Point><Style id="ID"><IconStyle id="ID"><Icon><href>http://maps.google.com/mapfiles/kml/paddle/purple-circle.png</href></Icon><color>50DC783C</color></IconStyle></Style></Placemark><Placemark targetId="0"><name>MIDDLE RIVER AT GA 25 AT PORT WENTWORTH, GA</name><ExtendedData/><Point><coordinates>-81.1383333,32.16555556</coordinates></Point><Style id="ID"><IconStyle id="ID"><Icon><href>http://maps.google.com/mapfiles/kml/paddle/purple-circle.png</href></Icon><color>50DC783C</color></IconStyle></Style></Placemark><Placemark targetId="0"><name>MIDDLE RIVER AT GA 25 AT PORT WENTWORTH, GA</name><ExtendedData/><Point><coordinates>-81.1383333,32.16555556</coordinates></Point><Style id="ID"><IconStyle id="ID"><Icon><href>http://maps.google.com/mapfiles/kml/paddle/purple-circle.png</href></Icon><color>50DC783C</color></IconStyle></Style></Placemark><Placemark targetId="0"><name>MIDDLE RIVER AT "FISH HOLE" AT PORT WENTWORTH, GA</name><ExtendedData/><Point><coordinates>-81.1352778,32.14277778</coordinates></Point><Style id="ID"><IconStyle id="ID"><Icon><href>http://maps.google.com/mapfiles/kml/paddle/purple-circle.png</href></Icon><color>50DC783C</color></IconStyle></Style></Placemark><Placemark targetId="0"><name>SAVANNAH RIVER AT GARDEN CITY, GA</name><ExtendedData/><Point><coordinates>-81.1292789,32.11576075</coordinates></Point><Style id="ID"><IconStyle id="ID"><Icon><href>http://maps.google.com/mapfiles/kml/paddle/purple-circle.png</href></Icon><color>50DC783C</color></IconStyle></Style></Placemark><Placemark targetId="0"><name>SAVANNAH RIVER AT USACE DOCK, AT SAVANNAH, GA</name><ExtendedData/><Point><coordinates>-81.081223,32.08104119</coordinates></Point><Style id="ID"><IconStyle id="ID"><Icon><href>http://maps.google.com/mapfiles/kml/paddle/purple-circle.png</href></Icon><color>50DC783C</color></IconStyle></Style></Placemark><Placemark targetId="0"><name>SAVANNAH RIVER AT USACE DOCK, AT SAVANNAH, GA</name><ExtendedData/><Point><coordinates>-81.081223,32.08104119</coordinates></Point><Style id="ID"><IconStyle id="ID"><Icon><href>http://maps.google.com/mapfiles/kml/paddle/purple-circle.png</href></Icon><color>50DC783C</color></IconStyle></Style></Placemark><Placemark targetId="0"><name>LITTLE BACK RIVER AT GA 25 AT PORT WENTWORTH, GA</name><ExtendedData/><Point><coordinates>-81.13,32.16583333</coordinates></Point><Style id="ID"><IconStyle id="ID"><Icon><href>http://maps.google.com/mapfiles/kml/paddle/purple-circle.png</href></Icon><color>50DC783C</color></IconStyle></Style></Placemark><Placemark targetId="0"><name>LITTLE BACK RIVER AT GA 25 AT PORT WENTWORTH, GA</name><ExtendedData/><Point><coordinates>-81.13,32.16583333</coordinates></Point><Style id="ID"><IconStyle id="ID"><Icon><href>http://maps.google.com/mapfiles/kml/paddle/purple-circle.png</href></Icon><color>50DC783C</color></IconStyle></Style></Placemark><Placemark targetId="0"><name>SAVANNAH RIVER AT FORT PULASKI, GA</name><ExtendedData/><Point><coordinates>-80.9031665,32.0341019</coordinates></Point><Style id="ID"><IconStyle id="ID"><Icon><href>http://maps.google.com/mapfiles/kml/paddle/purple-circle.png</href></Icon><color>50DC783C</color></IconStyle></Style></Placemark><Placemark targetId="0"><name>SAVANNAH RIVER AT FORT PULASKI, GA</name><ExtendedData/><Point><coordinates>-80.9031665,32.0341019</coordinates></Point><Style id="ID"><IconStyle id="ID"><Icon><href>http://maps.google.com/mapfiles/kml/paddle/purple-circle.png</href></Icon><color>50DC783C</color></IconStyle></Style></Placemark><Placemark targetId="0"><name>SOUTH CHANNEL (SAVANNAH RIVER) NEAR SAVANNAH, GA</name><ExtendedData/><Point><coordinates>-81.0023338,32.08270935</coordinates></Point><Style id="ID"><IconStyle id="ID"><Icon><href>http://maps.google.com/mapfiles/kml/paddle/purple-circle.png</href></Icon><color>50DC783C</color></IconStyle></Style></Placemark><Placemark targetId="0"><name>OGEECHEE RIVER AT GA 88, NEAR GRANGE, GA</name><ExtendedData/><Point><coordinates>-82.6037424,33.044596</coordinates></Point><Style id="ID"><IconStyle id="ID"><Icon><href>http://maps.google.com/mapfiles/kml/paddle/purple-circle.png</href></Icon><color>50DC783C</color></IconStyle></Style></Placemark><Placemark targetId="0"><name>OGEECHEE RIVER AT GA 88, NEAR GRANGE, GA</name><ExtendedData/><Point><coordinates>-82.6037424,33.044596</coordinates></Point><Style id="ID"><IconStyle id="ID"><Icon><href>http://maps.google.com/mapfiles/kml/paddle/purple-circle.png</href></Icon><color>50DC783C</color></IconStyle></Style></Placemark><Placemark targetId="0"><name>WILLIAMSON SWAMP CREEK AT DAVISBORO, GA</name><ExtendedData/><Point><coordinates>-82.609854,32.97570924</coordinates></Point><Style id="ID"><IconStyle id="ID"><Icon><href>http://maps.google.com/mapfiles/kml/paddle/purple-circle.png</href></Icon><color>50DC783C</color></IconStyle></Style></Placemark><Placemark targetId="0"><name>WILLIAMSON SWAMP CREEK AT DAVISBORO, GA</name><ExtendedData/><Point><coordinates>-82.609854,32.97570924</coordinates></Point><Style id="ID"><IconStyle id="ID"><Icon><href>http://maps.google.com/mapfiles/kml/paddle/purple-circle.png</href></Icon><color>50DC783C</color></IconStyle></Style></Placemark><Placemark targetId="0"><name>OGEECHEE RIVER AT MIDVILLE, GA</name><ExtendedData/><Point><coordinates>-82.23512329,32.8146012</coordinates></Point><Style id="ID"><IconStyle id="ID"><Icon><href>http://maps.google.com/mapfiles/kml/paddle/purple-circle.png</href></Icon><color>50DC783C</color></IconStyle></Style></Placemark><Placemark targetId="0"><name>OGEECHEE RIVER AT MIDVILLE, GA</name><ExtendedData/><Point><coordinates>-82.23512329,32.8146012</coordinates></Point><Style id="ID"><IconStyle id="ID"><Icon><href>http://maps.google.com/mapfiles/kml/paddle/purple-circle.png</href></Icon><color>50DC783C</color></IconStyle></Style></Placemark><Placemark targetId="0"><name>OGEECHEE RIVER AT ROCKY FORD RD, NR ROCKY FORD, GA</name><ExtendedData/><Point><coordinates>-81.8406685,32.6490563</coordinates></Point><Style id="ID"><IconStyle id="ID"><Icon><href>http://maps.google.com/mapfiles/kml/paddle/purple-circle.png</href></Icon><color>50DC783C</color></IconStyle></Style></Placemark><Placemark targetId="0"><name>OGEECHEE RIVER AT ROCKY FORD RD, NR ROCKY FORD, GA</name><ExtendedData/><Point><coordinates>-81.8406685,32.6490563</coordinates></Point><Style id="ID"><IconStyle id="ID"><Icon><href>http://maps.google.com/mapfiles/kml/paddle/purple-circle.png</href></Icon><color>50DC783C</color></IconStyle></Style></Placemark><Placemark targetId="0"><name>OGEECHEE RIVER AT GA 24, NEAR OLIVER, GA</name><ExtendedData/><Point><coordinates>-81.5556634,32.4946232</coordinates></Point><Style id="ID"><IconStyle id="ID"><Icon><href>http://maps.google.com/mapfiles/kml/paddle/purple-circle.png</href></Icon><color>50DC783C</color></IconStyle></Style></Placemark><Placemark targetId="0"><name>OGEECHEE RIVER AT GA 24, NEAR OLIVER, GA</name><ExtendedData/><Point><coordinates>-81.5556634,32.4946232</coordinates></Point><Style id="ID"><IconStyle id="ID"><Icon><href>http://maps.google.com/mapfiles/kml/paddle/purple-circle.png</href></Icon><color>50DC783C</color></IconStyle></Style></Placemark><Placemark targetId="0"><name>OGEECHEE RIVER NEAR EDEN, GA</name><ExtendedData/><Point><coordinates>-81.4159454,32.19159045</coordinates></Point><Style id="ID"><IconStyle id="ID"><Icon><href>http://maps.google.com/mapfiles/kml/paddle/purple-circle.png</href></Icon><color>50DC783C</color></IconStyle></Style></Placemark><Placemark targetId="0"><name>OGEECHEE RIVER NEAR EDEN, GA</name><ExtendedData/><Point><coordinates>-81.4159454,32.19159045</coordinates></Point><Style id="ID"><IconStyle id="ID"><Icon><href>http://maps.google.com/mapfiles/kml/paddle/purple-circle.png</href></Icon><color>50DC783C</color></IconStyle></Style></Placemark><Placemark targetId="0"><name>BLACK CREEK NEAR BLITCHTON, GA</name><ExtendedData/><Point><coordinates>-81.48816698,32.1679803</coordinates></Point><Style id="ID"><IconStyle id="ID"><Icon><href>http://maps.google.com/mapfiles/kml/paddle/purple-circle.png</href></Icon><color>50DC783C</color></IconStyle></Style></Placemark><Placemark targetId="0"><name>BLACK CREEK NEAR BLITCHTON, GA</name><ExtendedData/><Point><coordinates>-81.48816698,32.1679803</coordinates></Point><Style id="ID"><IconStyle id="ID"><Icon><href>http://maps.google.com/mapfiles/kml/paddle/purple-circle.png</href></Icon><color>50DC783C</color></IconStyle></Style></Placemark><Placemark targetId="0"><name>OGEECHEE RIVER AT GA 204, NEAR ELLABELL, GA</name><ExtendedData/><Point><coordinates>-81.3853901,32.0802044</coordinates></Point><Style id="ID"><IconStyle id="ID"><Icon><href>http://maps.google.com/mapfiles/kml/paddle/purple-circle.png</href></Icon><color>50DC783C</color></IconStyle></Style></Placemark><Placemark targetId="0"><name>OGEECHEE RIVER AT GA 204, NEAR ELLABELL, GA</name><ExtendedData/><Point><coordinates>-81.3853901,32.0802044</coordinates></Point><Style id="ID"><IconStyle id="ID"><Icon><href>http://maps.google.com/mapfiles/kml/paddle/purple-circle.png</href></Icon><color>50DC783C</color></IconStyle></Style></Placemark><Placemark targetId="0"><name>CANOOCHEE RIVER NEAR CLAXTON, GA</name><ExtendedData/><Point><coordinates>-81.8887265,32.18491397</coordinates></Point><Style id="ID"><IconStyle id="ID"><Icon><href>http://maps.google.com/mapfiles/kml/paddle/purple-circle.png</href></Icon><color>50DC783C</color></IconStyle></Style></Placemark><Placemark targetId="0"><name>CANOOCHEE RIVER NEAR CLAXTON, GA</name><ExtendedData/><Point><coordinates>-81.8887265,32.18491397</coordinates></Point><Style id="ID"><IconStyle id="ID"><Icon><href>http://maps.google.com/mapfiles/kml/paddle/purple-circle.png</href></Icon><color>50DC783C</color></IconStyle></Style></Placemark><Placemark targetId="0"><name>CANOOCHEE RIVER AT BRIDGE 38, AT FORT STEWART, GA</name><ExtendedData/><Point><coordinates>-81.4586111,31.96944444</coordinates></Point><Style id="ID"><IconStyle id="ID"><Icon><href>http://maps.google.com/mapfiles/kml/paddle/purple-circle.png</href></Icon><color>50DC783C</color></IconStyle></Style></Placemark><Placemark targetId="0"><name>CANOOCHEE RIVER AT BRIDGE 38, AT FORT STEWART, GA</name><ExtendedData/><Point><coordinates>-81.4586111,31.96944444</coordinates></Point><Style id="ID"><IconStyle id="ID"><Icon><href>http://maps.google.com/mapfiles/kml/paddle/purple-circle.png</href></Icon><color>50DC783C</color></IconStyle></Style></Placemark><Placemark targetId="0"><name>OGEECHEE RIVER AT US 17, NEAR RICHMOND HILL, GA</name><ExtendedData/><Point><coordinates>-81.2895556,31.97798585</coordinates></Point><Style id="ID"><IconStyle id="ID"><Icon><href>http://maps.google.com/mapfiles/kml/paddle/purple-circle.png</href></Icon><color>50DC783C</color></IconStyle></Style></Placemark><Placemark targetId="0"><name>OGEECHEE RIVER AT US 17, NEAR RICHMOND HILL, GA</name><ExtendedData/><Point><coordinates>-81.2895556,31.97798585</coordinates></Point><Style id="ID"><IconStyle id="ID"><Icon><href>http://maps.google.com/mapfiles/kml/paddle/purple-circle.png</href></Icon><color>50DC783C</color></IconStyle></Style></Placemark><Placemark targetId="0"><name>PEACOCK CREEK AT MCINTOSH, GA</name><ExtendedData/><Point><coordinates>-81.5201107,31.8138232</coordinates></Point><Style id="ID"><IconStyle id="ID"><Icon><href>http://maps.google.com/mapfiles/kml/paddle/purple-circle.png</href></Icon><color>50DC783C</color></IconStyle></Style></Placemark><Placemark targetId="0"><name>PEACOCK CREEK AT MCINTOSH, GA</name><ExtendedData/><Point><coordinates>-81.5201107,31.8138232</coordinates></Point><Style id="ID"><IconStyle id="ID"><Icon><href>http://maps.google.com/mapfiles/kml/paddle/purple-circle.png</href></Icon><color>50DC783C</color></IconStyle></Style></Placemark><Placemark targetId="0"><name>HUDSON CREEK AT MERIDIAN LANDING, NEAR MERIDIAN,GA</name><ExtendedData/><Point><coordinates>-81.3627778,31.45333333</coordinates></Point><Style id="ID"><IconStyle id="ID"><Icon><href>http://maps.google.com/mapfiles/kml/paddle/purple-circle.png</href></Icon><color>50DC783C</color></IconStyle></Style></Placemark><Placemark targetId="0"><name>SOUTH RIVER AT SPRINGDALE ROAD, AT ATLANTA, GA</name><ExtendedData/><Point><coordinates>-84.4152778,33.68388889</coordinates></Point><Style id="ID"><IconStyle id="ID"><Icon><href>http://maps.google.com/mapfiles/kml/paddle/purple-circle.png</href></Icon><color>50DC783C</color></IconStyle></Style></Placemark><Placemark targetId="0"><name>SOUTH RIVER AT FORREST PARK ROAD, AT ATLANTA, GA</name><ExtendedData/><Point><coordinates>-84.3579807,33.67899706</coordinates></Point><Style id="ID"><IconStyle id="ID"><Icon><href>http://maps.google.com/mapfiles/kml/paddle/purple-circle.png</href></Icon><color>50DC783C</color></IconStyle></Style></Placemark><Placemark targetId="0"><name>SOUTH RIVER AT FORREST PARK ROAD, AT ATLANTA, GA</name><ExtendedData/><Point><coordinates>-84.3579807,33.67899706</coordinates></Point><Style id="ID"><IconStyle id="ID"><Icon><href>http://maps.google.com/mapfiles/kml/paddle/purple-circle.png</href></Icon><color>50DC783C</color></IconStyle></Style></Placemark><Placemark targetId="0"><name>INTRENCHMENT CR AT CONSTITUTION RD, NR ATLANTA, GA</name><ExtendedData/><Point><coordinates>-84.3304798,33.6889966</coordinates></Point><Style id="ID"><IconStyle id="ID"><Icon><href>http://maps.google.com/mapfiles/kml/paddle/purple-circle.png</href></Icon><color>50DC783C</color></IconStyle></Style></Placemark><Placemark targetId="0"><name>INTRENCHMENT CR AT CONSTITUTION RD, NR ATLANTA, GA</name><ExtendedData/><Point><coordinates>-84.3304798,33.6889966</coordinates></Point><Style id="ID"><IconStyle id="ID"><Icon><href>http://maps.google.com/mapfiles/kml/paddle/purple-circle.png</href></Icon><color>50DC783C</color></IconStyle></Style></Placemark><Placemark targetId="0"><name>DOOLITTLE CREEK AT FLAT SHOALS RD, NR DECATUR, GA</name><ExtendedData/><Point><coordinates>-84.29242299,33.70566259</coordinates></Point><Style id="ID"><IconStyle id="ID"><Icon><href>http://maps.google.com/mapfiles/kml/paddle/purple-circle.png</href></Icon><color>50DC783C</color></IconStyle></Style></Placemark><Placemark targetId="0"><name>SHOAL CREEK AT COLUMBIA DRIVE NEAR ATLANTA, GA</name><ExtendedData/><Point><coordinates>-84.25388889,33.69319444</coordinates></Point><Style id="ID"><IconStyle id="ID"><Icon><href>http://maps.google.com/mapfiles/kml/paddle/purple-circle.png</href></Icon><color>50DC783C</color></IconStyle></Style></Placemark><Placemark targetId="0"><name>SHOAL CREEK AT COLUMBIA DRIVE NEAR ATLANTA, GA</name><ExtendedData/><Point><coordinates>-84.25388889,33.69319444</coordinates></Point><Style id="ID"><IconStyle id="ID"><Icon><href>http://maps.google.com/mapfiles/kml/paddle/purple-circle.png</href></Icon><color>50DC783C</color></IconStyle></Style></Placemark><Placemark targetId="0"><name>COBBS CREEK AT RAINBOW DR, NEAR DECATUR, GA</name><ExtendedData/><Point><coordinates>-84.2393655,33.7095512</coordinates></Point><Style id="ID"><IconStyle id="ID"><Icon><href>http://maps.google.com/mapfiles/kml/paddle/purple-circle.png</href></Icon><color>50DC783C</color></IconStyle></Style></Placemark><Placemark targetId="0"><name>SOUTH RIVER AT FLAKES MILL ROAD NR ATLANTA, GA</name><ExtendedData/><Point><coordinates>-84.2246426,33.66621924</coordinates></Point><Style id="ID"><IconStyle id="ID"><Icon><href>http://maps.google.com/mapfiles/kml/paddle/purple-circle.png</href></Icon><color>50DC783C</color></IconStyle></Style></Placemark><Placemark targetId="0"><name>SOUTH RIVER AT FLAKES MILL ROAD NR ATLANTA, GA</name><ExtendedData/><Point><coordinates>-84.2246426,33.66621924</coordinates></Point><Style id="ID"><IconStyle id="ID"><Icon><href>http://maps.google.com/mapfiles/kml/paddle/purple-circle.png</href></Icon><color>50DC783C</color></IconStyle></Style></Placemark><Placemark targetId="0"><name>SNAPFINGER CREEK NEAR DECATUR, GA</name><ExtendedData/><Point><coordinates>-84.2201982,33.7634389</coordinates></Point><Style id="ID"><IconStyle id="ID"><Icon><href>http://maps.google.com/mapfiles/kml/paddle/purple-circle.png</href></Icon><color>50DC783C</color></IconStyle></Style></Placemark><Placemark targetId="0"><name>SNAPFINGER CREEK NEAR DECATUR, GA</name><ExtendedData/><Point><coordinates>-84.2201982,33.7634389</coordinates></Point><Style id="ID"><IconStyle id="ID"><Icon><href>http://maps.google.com/mapfiles/kml/paddle/purple-circle.png</href></Icon><color>50DC783C</color></IconStyle></Style></Placemark><Placemark targetId="0"><name>SNAPFINGER CR AT THOMPSON MILL RD NR LITHONIA, GA</name><ExtendedData/><Point><coordinates>-84.1986111,33.69666667</coordinates></Point><Style id="ID"><IconStyle id="ID"><Icon><href>http://maps.google.com/mapfiles/kml/paddle/purple-circle.png</href></Icon><color>50DC783C</color></IconStyle></Style></Placemark><Placemark targetId="0"><name>SNAPFINGER CR AT THOMPSON MILL RD NR LITHONIA, GA</name><ExtendedData/><Point><coordinates>-84.1986111,33.69666667</coordinates></Point><Style id="ID"><IconStyle id="ID"><Icon><href>http://maps.google.com/mapfiles/kml/paddle/purple-circle.png</href></Icon><color>50DC783C</color></IconStyle></Style></Placemark><Placemark targetId="0"><name>POLE BRIDGE CR AT EVANS MILL RD NEAR LITHONIA, GA</name><ExtendedData/><Point><coordinates>-84.1510287,33.6684422</coordinates></Point><Style id="ID"><IconStyle id="ID"><Icon><href>http://maps.google.com/mapfiles/kml/paddle/purple-circle.png</href></Icon><color>50DC783C</color></IconStyle></Style></Placemark><Placemark targetId="0"><name>SOUTH RIVER AT KLONDIKE ROAD, NEAR LITHONIA, GA</name><ExtendedData/><Point><coordinates>-84.1285277,33.62983228</coordinates></Point><Style id="ID"><IconStyle id="ID"><Icon><href>http://maps.google.com/mapfiles/kml/paddle/purple-circle.png</href></Icon><color>50DC783C</color></IconStyle></Style></Placemark><Placemark targetId="0"><name>SOUTH RIVER AT KLONDIKE ROAD, NEAR LITHONIA, GA</name><ExtendedData/><Point><coordinates>-84.1285277,33.62983228</coordinates></Point><Style id="ID"><IconStyle id="ID"><Icon><href>http://maps.google.com/mapfiles/kml/paddle/purple-circle.png</href></Icon><color>50DC783C</color></IconStyle></Style></Placemark><Placemark targetId="0"><name>HONEY CREEK AT GA 212, NEAR CONYERS, GA</name><ExtendedData/><Point><coordinates>-84.0640805,33.57983406</coordinates></Point><Style id="ID"><IconStyle id="ID"><Icon><href>http://maps.google.com/mapfiles/kml/paddle/purple-circle.png</href></Icon><color>50DC783C</color></IconStyle></Style></Placemark><Placemark targetId="0"><name>HONEY CREEK AT GA 212, NEAR CONYERS, GA</name><ExtendedData/><Point><coordinates>-84.0640805,33.57983406</coordinates></Point><Style id="ID"><IconStyle id="ID"><Icon><href>http://maps.google.com/mapfiles/kml/paddle/purple-circle.png</href></Icon><color>50DC783C</color></IconStyle></Style></Placemark><Placemark targetId="0"><name>PATES CREEK NEAR FLIPPEN, GA</name><ExtendedData/><Point><coordinates>-84.245,33.4925</coordinates></Point><Style id="ID"><IconStyle id="ID"><Icon><href>http://maps.google.com/mapfiles/kml/paddle/purple-circle.png</href></Icon><color>50DC783C</color></IconStyle></Style></Placemark><Placemark targetId="0"><name>PATES CREEK NEAR FLIPPEN, GA</name><ExtendedData/><Point><coordinates>-84.245,33.4925</coordinates></Point><Style id="ID"><IconStyle id="ID"><Icon><href>http://maps.google.com/mapfiles/kml/paddle/purple-circle.png</href></Icon><color>50DC783C</color></IconStyle></Style></Placemark><Placemark targetId="0"><name>SOUTH RIVER AT GA 81, AT SNAPPING SHOALS, GA</name><ExtendedData/><Point><coordinates>-83.9579647,33.48455976</coordinates></Point><Style id="ID"><IconStyle id="ID"><Icon><href>http://maps.google.com/mapfiles/kml/paddle/purple-circle.png</href></Icon><color>50DC783C</color></IconStyle></Style></Placemark><Placemark targetId="0"><name>SOUTH RIVER AT GA 81, AT SNAPPING SHOALS, GA</name><ExtendedData/><Point><coordinates>-83.9579647,33.48455976</coordinates></Point><Style id="ID"><IconStyle id="ID"><Icon><href>http://maps.google.com/mapfiles/kml/paddle/purple-circle.png</href></Icon><color>50DC783C</color></IconStyle></Style></Placemark><Placemark targetId="0"><name>SWEETWATER CREEK AT CLUB DRIVE NEAR LILBURN, GA</name><ExtendedData/><Point><coordinates>-84.1077778,33.9411111</coordinates></Point><Style id="ID"><IconStyle id="ID"><Icon><href>http://maps.google.com/mapfiles/kml/paddle/purple-circle.png</href></Icon><color>50DC783C</color></IconStyle></Style></Placemark><Placemark targetId="0"><name>SWEETWATER CREEK AT CLUB DRIVE NEAR LILBURN, GA</name><ExtendedData/><Point><coordinates>-84.1077778,33.9411111</coordinates></Point><Style id="ID"><IconStyle id="ID"><Icon><href>http://maps.google.com/mapfiles/kml/paddle/purple-circle.png</href></Icon><color>50DC783C</color></IconStyle></Style></Placemark><Placemark targetId="0"><name>YELLOW RIVER AT GA 124, NEAR LITHONIA, GA</name><ExtendedData/><Point><coordinates>-84.0582475,33.7728852</coordinates></Point><Style id="ID"><IconStyle id="ID"><Icon><href>http://maps.google.com/mapfiles/kml/paddle/purple-circle.png</href></Icon><color>50DC783C</color></IconStyle></Style></Placemark><Placemark targetId="0"><name>YELLOW RIVER AT GA 124, NEAR LITHONIA, GA</name><ExtendedData/><Point><coordinates>-84.0582475,33.7728852</coordinates></Point><Style id="ID"><IconStyle id="ID"><Icon><href>http://maps.google.com/mapfiles/kml/paddle/purple-circle.png</href></Icon><color>50DC783C</color></IconStyle></Style></Placemark><Placemark targetId="0"><name>STONE MTN CR AT SILVER HILL RD, NEAR STONE MTN, GA</name><ExtendedData/><Point><coordinates>-84.16519568,33.8262159</coordinates></Point><Style id="ID"><IconStyle id="ID"><Icon><href>http://maps.google.com/mapfiles/kml/paddle/purple-circle.png</href></Icon><color>50DC783C</color></IconStyle></Style></Placemark><Placemark targetId="0"><name>LITTLE STONE MTN CR NEAR STONE MOUNTAIN, GA</name><ExtendedData/><Point><coordinates>-84.1393612,33.83066058</coordinates></Point><Style id="ID"><IconStyle id="ID"><Icon><href>http://maps.google.com/mapfiles/kml/paddle/purple-circle.png</href></Icon><color>50DC783C</color></IconStyle></Style></Placemark><Placemark targetId="0"><name>STONE MOUNTAIN CREEK AT GA 124, NEAR LITHONIA, GA</name><ExtendedData/><Point><coordinates>-84.077137,33.7734405</coordinates></Point><Style id="ID"><IconStyle id="ID"><Icon><href>http://maps.google.com/mapfiles/kml/paddle/purple-circle.png</href></Icon><color>50DC783C</color></IconStyle></Style></Placemark><Placemark targetId="0"><name>NO BUSINESS CREEK AT LEE ROAD, BELOW SNELLVILLE,GA</name><ExtendedData/><Point><coordinates>-84.03796879,33.7781631</coordinates></Point><Style id="ID"><IconStyle id="ID"><Icon><href>http://maps.google.com/mapfiles/kml/paddle/purple-circle.png</href></Icon><color>50DC783C</color></IconStyle></Style></Placemark><Placemark targetId="0"><name>NO BUSINESS CREEK AT LEE ROAD, BELOW SNELLVILLE,GA</name><ExtendedData/><Point><coordinates>-84.03796879,33.7781631</coordinates></Point><Style id="ID"><IconStyle id="ID"><Icon><href>http://maps.google.com/mapfiles/kml/paddle/purple-circle.png</href></Icon><color>50DC783C</color></IconStyle></Style></Placemark><Placemark targetId="0"><name>SWIFT CREEK NEAR LITHONIA, GA</name><ExtendedData/><Point><coordinates>-84.0838044,33.74816328</coordinates></Point><Style id="ID"><IconStyle id="ID"><Icon><href>http://maps.google.com/mapfiles/kml/paddle/purple-circle.png</href></Icon><color>50DC783C</color></IconStyle></Style></Placemark><Placemark targetId="0"><name>YELLOW RIVER AT PLEASANT HILL ROAD, NR LITHONIA,GA</name><ExtendedData/><Point><coordinates>-84.061859,33.73371945</coordinates></Point><Style id="ID"><IconStyle id="ID"><Icon><href>http://maps.google.com/mapfiles/kml/paddle/purple-circle.png</href></Icon><color>50DC783C</color></IconStyle></Style></Placemark><Placemark targetId="0"><name>YELLOW RIVER AT PLEASANT HILL ROAD, NR LITHONIA,GA</name><ExtendedData/><Point><coordinates>-84.061859,33.73371945</coordinates></Point><Style id="ID"><IconStyle id="ID"><Icon><href>http://maps.google.com/mapfiles/kml/paddle/purple-circle.png</href></Icon><color>50DC783C</color></IconStyle></Style></Placemark><Placemark targetId="0"><name>YELLOW RIVER AT MILSTEAD, GA</name><ExtendedData/><Point><coordinates>-83.9966667,33.6925</coordinates></Point><Style id="ID"><IconStyle id="ID"><Icon><href>http://maps.google.com/mapfiles/kml/paddle/purple-circle.png</href></Icon><color>50DC783C</color></IconStyle></Style></Placemark><Placemark targetId="0"><name>YELLOW RIVER AT GEES MILL ROAD, NEAR MILSTEAD, GA</name><ExtendedData/><Point><coordinates>-83.9380556,33.66694444</coordinates></Point><Style id="ID"><IconStyle id="ID"><Icon><href>http://maps.google.com/mapfiles/kml/paddle/purple-circle.png</href></Icon><color>50DC783C</color></IconStyle></Style></Placemark><Placemark targetId="0"><name>YELLOW RIVER AT GEES MILL ROAD, NEAR MILSTEAD, GA</name><ExtendedData/><Point><coordinates>-83.9380556,33.66694444</coordinates></Point><Style id="ID"><IconStyle id="ID"><Icon><href>http://maps.google.com/mapfiles/kml/paddle/purple-circle.png</href></Icon><color>50DC783C</color></IconStyle></Style></Placemark><Placemark targetId="0"><name>BIG HAYNES CREEK AT LENORA ROAD, NR SNELLVILLE, GA</name><ExtendedData/><Point><coordinates>-83.99018809,33.8151073</coordinates></Point><Style id="ID"><IconStyle id="ID"><Icon><href>http://maps.google.com/mapfiles/kml/paddle/purple-circle.png</href></Icon><color>50DC783C</color></IconStyle></Style></Placemark><Placemark targetId="0"><name>BIG HAYNES CREEK AT LENORA ROAD, NR SNELLVILLE, GA</name><ExtendedData/><Point><coordinates>-83.99018809,33.8151073</coordinates></Point><Style id="ID"><IconStyle id="ID"><Icon><href>http://maps.google.com/mapfiles/kml/paddle/purple-circle.png</href></Icon><color>50DC783C</color></IconStyle></Style></Placemark><Placemark targetId="0"><name>BRUSHY FORK CREEK AT BEAVER ROAD, NR LOGANVILLE,GA</name><ExtendedData/><Point><coordinates>-83.9424076,33.82149715</coordinates></Point><Style id="ID"><IconStyle id="ID"><Icon><href>http://maps.google.com/mapfiles/kml/paddle/purple-circle.png</href></Icon><color>50DC783C</color></IconStyle></Style></Placemark><Placemark targetId="0"><name>BRUSHY FORK CREEK AT BEAVER ROAD, NR LOGANVILLE,GA</name><ExtendedData/><Point><coordinates>-83.9424076,33.82149715</coordinates></Point><Style id="ID"><IconStyle id="ID"><Icon><href>http://maps.google.com/mapfiles/kml/paddle/purple-circle.png</href></Icon><color>50DC783C</color></IconStyle></Style></Placemark><Placemark targetId="0"><name>BIG HAYNES CREEK AT JACK TURNER DAM,NR MILSTEAD GA</name><ExtendedData/><Point><coordinates>-83.9372222,33.72916667</coordinates></Point><Style id="ID"><IconStyle id="ID"><Icon><href>http://maps.google.com/mapfiles/kml/paddle/purple-circle.png</href></Icon><color>50DC783C</color></IconStyle></Style></Placemark><Placemark targetId="0"><name>BIG HAYNES CREEK AT JACK TURNER DAM,NR MILSTEAD GA</name><ExtendedData/><Point><coordinates>-83.9372222,33.72916667</coordinates></Point><Style id="ID"><IconStyle id="ID"><Icon><href>http://maps.google.com/mapfiles/kml/paddle/purple-circle.png</href></Icon><color>50DC783C</color></IconStyle></Style></Placemark><Placemark targetId="0"><name>LITTLE HAYNES CREEK AT DIAL MILL RD NR MILSTEAD GA</name><ExtendedData/><Point><coordinates>-83.9144444,33.7111111</coordinates></Point><Style id="ID"><IconStyle id="ID"><Icon><href>http://maps.google.com/mapfiles/kml/paddle/purple-circle.png</href></Icon><color>50DC783C</color></IconStyle></Style></Placemark><Placemark targetId="0"><name>LITTLE HAYNES CREEK AT DIAL MILL RD NR MILSTEAD GA</name><ExtendedData/><Point><coordinates>-83.9144444,33.7111111</coordinates></Point><Style id="ID"><IconStyle id="ID"><Icon><href>http://maps.google.com/mapfiles/kml/paddle/purple-circle.png</href></Icon><color>50DC783C</color></IconStyle></Style></Placemark><Placemark targetId="0"><name>BIG HAYNES CREEK AT BALD ROCK ROAD, NR MILSTEAD GA</name><ExtendedData/><Point><coordinates>-83.9277778,33.66138889</coordinates></Point><Style id="ID"><IconStyle id="ID"><Icon><href>http://maps.google.com/mapfiles/kml/paddle/purple-circle.png</href></Icon><color>50DC783C</color></IconStyle></Style></Placemark><Placemark targetId="0"><name>BIG HAYNES CREEK AT BALD ROCK ROAD, NR MILSTEAD GA</name><ExtendedData/><Point><coordinates>-83.9277778,33.66138889</coordinates></Point><Style id="ID"><IconStyle id="ID"><Icon><href>http://maps.google.com/mapfiles/kml/paddle/purple-circle.png</href></Icon><color>50DC783C</color></IconStyle></Style></Placemark><Placemark targetId="0"><name>YELLOW RIVER ROCKY PLAINS RD NR ROCKY PLAINS, GA</name><ExtendedData/><Point><coordinates>-83.8841667,33.4998611</coordinates></Point><Style id="ID"><IconStyle id="ID"><Icon><href>http://maps.google.com/mapfiles/kml/paddle/purple-circle.png</href></Icon><color>50DC783C</color></IconStyle></Style></Placemark><Placemark targetId="0"><name>YELLOW RIVER ROCKY PLAINS RD NR ROCKY PLAINS, GA</name><ExtendedData/><Point><coordinates>-83.8841667,33.4998611</coordinates></Point><Style id="ID"><IconStyle id="ID"><Icon><href>http://maps.google.com/mapfiles/kml/paddle/purple-circle.png</href></Icon><color>50DC783C</color></IconStyle></Style></Placemark><Placemark targetId="0"><name>ALCOVY RIVER NEAR LAWRENCEVILLE, GA</name><ExtendedData/><Point><coordinates>-83.9396262,33.97788234</coordinates></Point><Style id="ID"><IconStyle id="ID"><Icon><href>http://maps.google.com/mapfiles/kml/paddle/purple-circle.png</href></Icon><color>50DC783C</color></IconStyle></Style></Placemark><Placemark targetId="0"><name>ALCOVY RIVER NEAR LAWRENCEVILLE, GA</name><ExtendedData/><Point><coordinates>-83.9396262,33.97788234</coordinates></Point><Style id="ID"><IconStyle id="ID"><Icon><href>http://maps.google.com/mapfiles/kml/paddle/purple-circle.png</href></Icon><color>50DC783C</color></IconStyle></Style></Placemark><Placemark targetId="0"><name>ALCOVY RIVER AT NEW HOPE ROAD, NEAR GRAYSON, GA</name><ExtendedData/><Point><coordinates>-83.8879582,33.9176073</coordinates></Point><Style id="ID"><IconStyle id="ID"><Icon><href>http://maps.google.com/mapfiles/kml/paddle/purple-circle.png</href></Icon><color>50DC783C</color></IconStyle></Style></Placemark><Placemark targetId="0"><name>ALCOVY RIVER AT NEW HOPE ROAD, NEAR GRAYSON, GA</name><ExtendedData/><Point><coordinates>-83.8879582,33.9176073</coordinates></Point><Style id="ID"><IconStyle id="ID"><Icon><href>http://maps.google.com/mapfiles/kml/paddle/purple-circle.png</href></Icon><color>50DC783C</color></IconStyle></Style></Placemark><Placemark targetId="0"><name>ALCOVY RIVER ABOVE COVINGTON, GA</name><ExtendedData/><Point><coordinates>-83.7790674,33.64011554</coordinates></Point><Style id="ID"><IconStyle id="ID"><Icon><href>http://maps.google.com/mapfiles/kml/paddle/purple-circle.png</href></Icon><color>50DC783C</color></IconStyle></Style></Placemark><Placemark targetId="0"><name>ALCOVY RIVER ABOVE COVINGTON, GA</name><ExtendedData/><Point><coordinates>-83.7790674,33.64011554</coordinates></Point><Style id="ID"><IconStyle id="ID"><Icon><href>http://maps.google.com/mapfiles/kml/paddle/purple-circle.png</href></Icon><color>50DC783C</color></IconStyle></Style></Placemark><Placemark targetId="0"><name>CORNISH CREEK AT LOWER JERSEY RD, NR COVINGTON, GA</name><ExtendedData/><Point><coordinates>-83.8111111,33.7108333</coordinates></Point><Style id="ID"><IconStyle id="ID"><Icon><href>http://maps.google.com/mapfiles/kml/paddle/purple-circle.png</href></Icon><color>50DC783C</color></IconStyle></Style></Placemark><Placemark targetId="0"><name>LITTLE CORNISH CR (COUNTY ROAD 95) NR OXFORD, GA</name><ExtendedData/><Point><coordinates>-83.8297222,33.67944444</coordinates></Point><Style id="ID"><IconStyle id="ID"><Icon><href>http://maps.google.com/mapfiles/kml/paddle/purple-circle.png</href></Icon><color>50DC783C</color></IconStyle></Style></Placemark><Placemark targetId="0"><name>CORNISH CREEK AT HAZELBRAND RD NR COVINGTON, GA</name><ExtendedData/><Point><coordinates>-83.7988611,33.6285</coordinates></Point><Style id="ID"><IconStyle id="ID"><Icon><href>http://maps.google.com/mapfiles/kml/paddle/purple-circle.png</href></Icon><color>50DC783C</color></IconStyle></Style></Placemark><Placemark targetId="0"><name>CORNISH CREEK AT HAZELBRAND RD NR COVINGTON, GA</name><ExtendedData/><Point><coordinates>-83.7988611,33.6285</coordinates></Point><Style id="ID"><IconStyle id="ID"><Icon><href>http://maps.google.com/mapfiles/kml/paddle/purple-circle.png</href></Icon><color>50DC783C</color></IconStyle></Style></Placemark><Placemark targetId="0"><name>ALCOVY RIVER BELOW COVINGTON, GA</name><ExtendedData/><Point><coordinates>-83.8249037,33.5059506</coordinates></Point><Style id="ID"><IconStyle id="ID"><Icon><href>http://maps.google.com/mapfiles/kml/paddle/purple-circle.png</href></Icon><color>50DC783C</color></IconStyle></Style></Placemark><Placemark targetId="0"><name>ALCOVY RIVER BELOW COVINGTON, GA</name><ExtendedData/><Point><coordinates>-83.8249037,33.5059506</coordinates></Point><Style id="ID"><IconStyle id="ID"><Icon><href>http://maps.google.com/mapfiles/kml/paddle/purple-circle.png</href></Icon><color>50DC783C</color></IconStyle></Style></Placemark><Placemark targetId="0"><name>EAST BEAR CREEK AT POPLAR ROAD, NR MANSFIELD, GA</name><ExtendedData/><Point><coordinates>-83.77025,33.50725</coordinates></Point><Style id="ID"><IconStyle id="ID"><Icon><href>http://maps.google.com/mapfiles/kml/paddle/purple-circle.png</href></Icon><color>50DC783C</color></IconStyle></Style></Placemark><Placemark targetId="0"><name>EAST BEAR CREEK AT POPLAR ROAD, NR MANSFIELD, GA</name><ExtendedData/><Point><coordinates>-83.77025,33.50725</coordinates></Point><Style id="ID"><IconStyle id="ID"><Icon><href>http://maps.google.com/mapfiles/kml/paddle/purple-circle.png</href></Icon><color>50DC783C</color></IconStyle></Style></Placemark><Placemark targetId="0"><name>OCMULGEE RIVER NEAR JACKSON, GA</name><ExtendedData/><Point><coordinates>-83.8382362,33.30790004</coordinates></Point><Style id="ID"><IconStyle id="ID"><Icon><href>http://maps.google.com/mapfiles/kml/paddle/purple-circle.png</href></Icon><color>50DC783C</color></IconStyle></Style></Placemark><Placemark targetId="0"><name>OCMULGEE RIVER NEAR JACKSON, GA</name><ExtendedData/><Point><coordinates>-83.8382362,33.30790004</coordinates></Point><Style id="ID"><IconStyle id="ID"><Icon><href>http://maps.google.com/mapfiles/kml/paddle/purple-circle.png</href></Icon><color>50DC783C</color></IconStyle></Style></Placemark><Placemark targetId="0"><name>CABIN CREEK AT NORTH SECOND STREET, NR GRIFFIN, GA</name><ExtendedData/><Point><coordinates>-84.23638889,33.27166667</coordinates></Point><Style id="ID"><IconStyle id="ID"><Icon><href>http://maps.google.com/mapfiles/kml/paddle/purple-circle.png</href></Icon><color>50DC783C</color></IconStyle></Style></Placemark><Placemark targetId="0"><name>CABIN CREEK AT NORTH SECOND STREET, NR GRIFFIN, GA</name><ExtendedData/><Point><coordinates>-84.23638889,33.27166667</coordinates></Point><Style id="ID"><IconStyle id="ID"><Icon><href>http://maps.google.com/mapfiles/kml/paddle/purple-circle.png</href></Icon><color>50DC783C</color></IconStyle></Style></Placemark><Placemark targetId="0"><name>TOWALIGA RIVER AT GA 83 NEAR JULIETTE, GA</name><ExtendedData/><Point><coordinates>-83.870461,33.11485079</coordinates></Point><Style id="ID"><IconStyle id="ID"><Icon><href>http://maps.google.com/mapfiles/kml/paddle/purple-circle.png</href></Icon><color>50DC783C</color></IconStyle></Style></Placemark><Placemark targetId="0"><name>TOWALIGA RIVER AT GA 83 NEAR JULIETTE, GA</name><ExtendedData/><Point><coordinates>-83.870461,33.11485079</coordinates></Point><Style id="ID"><IconStyle id="ID"><Icon><href>http://maps.google.com/mapfiles/kml/paddle/purple-circle.png</href></Icon><color>50DC783C</color></IconStyle></Style></Placemark><Placemark targetId="0"><name>FALLING CREEK NEAR JULIETTE, GA</name><ExtendedData/><Point><coordinates>-83.7235104,33.0998535</coordinates></Point><Style id="ID"><IconStyle id="ID"><Icon><href>http://maps.google.com/mapfiles/kml/paddle/purple-circle.png</href></Icon><color>50DC783C</color></IconStyle></Style></Placemark><Placemark targetId="0"><name>FALLING CREEK NEAR JULIETTE, GA</name><ExtendedData/><Point><coordinates>-83.7235104,33.0998535</coordinates></Point><Style id="ID"><IconStyle id="ID"><Icon><href>http://maps.google.com/mapfiles/kml/paddle/purple-circle.png</href></Icon><color>50DC783C</color></IconStyle></Style></Placemark><Placemark targetId="0"><name>OCMULGEE RIVER AT GA 18, AT DAMES FERRY, GA</name><ExtendedData/><Point><coordinates>-83.72712329,33.01680095</coordinates></Point><Style id="ID"><IconStyle id="ID"><Icon><href>http://maps.google.com/mapfiles/kml/paddle/purple-circle.png</href></Icon><color>50DC783C</color></IconStyle></Style></Placemark><Placemark targetId="0"><name>OCMULGEE RIVER AT GA 18, AT DAMES FERRY, GA</name><ExtendedData/><Point><coordinates>-83.72712329,33.01680095</coordinates></Point><Style id="ID"><IconStyle id="ID"><Icon><href>http://maps.google.com/mapfiles/kml/paddle/purple-circle.png</href></Icon><color>50DC783C</color></IconStyle></Style></Placemark><Placemark targetId="0"><name>OCMULGEE RIVER AT MACON, GA</name><ExtendedData/><Point><coordinates>-83.6205556,32.8386111</coordinates></Point><Style id="ID"><IconStyle id="ID"><Icon><href>http://maps.google.com/mapfiles/kml/paddle/purple-circle.png</href></Icon><color>50DC783C</color></IconStyle></Style></Placemark><Placemark targetId="0"><name>OCMULGEE RIVER AT MACON, GA</name><ExtendedData/><Point><coordinates>-83.6205556,32.8386111</coordinates></Point><Style id="ID"><IconStyle id="ID"><Icon><href>http://maps.google.com/mapfiles/kml/paddle/purple-circle.png</href></Icon><color>50DC783C</color></IconStyle></Style></Placemark><Placemark targetId="0"><name>TOBESOFKEE CREEK NEAR MACON, GA</name><ExtendedData/><Point><coordinates>-83.7583333,32.80888889</coordinates></Point><Style id="ID"><IconStyle id="ID"><Icon><href>http://maps.google.com/mapfiles/kml/paddle/purple-circle.png</href></Icon><color>50DC783C</color></IconStyle></Style></Placemark><Placemark targetId="0"><name>TOBESOFKEE CREEK NEAR MACON, GA</name><ExtendedData/><Point><coordinates>-83.7583333,32.80888889</coordinates></Point><Style id="ID"><IconStyle id="ID"><Icon><href>http://maps.google.com/mapfiles/kml/paddle/purple-circle.png</href></Icon><color>50DC783C</color></IconStyle></Style></Placemark><Placemark targetId="0"><name>ECHECONNEE CREEK AT HOUSTON RD, NEAR BYRON, GA</name><ExtendedData/><Point><coordinates>-83.7009722,32.69187778</coordinates></Point><Style id="ID"><IconStyle id="ID"><Icon><href>http://maps.google.com/mapfiles/kml/paddle/purple-circle.png</href></Icon><color>50DC783C</color></IconStyle></Style></Placemark><Placemark targetId="0"><name>ECHECONNEE CREEK AT HOUSTON RD, NEAR BYRON, GA</name><ExtendedData/><Point><coordinates>-83.7009722,32.69187778</coordinates></Point><Style id="ID"><IconStyle id="ID"><Icon><href>http://maps.google.com/mapfiles/kml/paddle/purple-circle.png</href></Icon><color>50DC783C</color></IconStyle></Style></Placemark><Placemark targetId="0"><name>BIG INDIAN CREEK AT US 341, NEAR CLINCHFIELD, GA</name><ExtendedData/><Point><coordinates>-83.644348,32.4268188</coordinates></Point><Style id="ID"><IconStyle id="ID"><Icon><href>http://maps.google.com/mapfiles/kml/paddle/purple-circle.png</href></Icon><color>50DC783C</color></IconStyle></Style></Placemark><Placemark targetId="0"><name>BIG INDIAN CREEK AT US 341, NEAR CLINCHFIELD, GA</name><ExtendedData/><Point><coordinates>-83.644348,32.4268188</coordinates></Point><Style id="ID"><IconStyle id="ID"><Icon><href>http://maps.google.com/mapfiles/kml/paddle/purple-circle.png</href></Icon><color>50DC783C</color></IconStyle></Style></Placemark><Placemark targetId="0"><name>OCMULGEE RIVER AT US 341, AT HAWKINSVILLE, GA</name><ExtendedData/><Point><coordinates>-83.4610055,32.28071817</coordinates></Point><Style id="ID"><IconStyle id="ID"><Icon><href>http://maps.google.com/mapfiles/kml/paddle/purple-circle.png</href></Icon><color>50DC783C</color></IconStyle></Style></Placemark><Placemark targetId="0"><name>OCMULGEE RIVER AT US 341, AT HAWKINSVILLE, GA</name><ExtendedData/><Point><coordinates>-83.4610055,32.28071817</coordinates></Point><Style id="ID"><IconStyle id="ID"><Icon><href>http://maps.google.com/mapfiles/kml/paddle/purple-circle.png</href></Icon><color>50DC783C</color></IconStyle></Style></Placemark><Placemark targetId="0"><name>TUCSAWHATCHEE CREEK NEAR HAWKINSVILLE, GA</name><ExtendedData/><Point><coordinates>-83.5016667,32.23944444</coordinates></Point><Style id="ID"><IconStyle id="ID"><Icon><href>http://maps.google.com/mapfiles/kml/paddle/purple-circle.png</href></Icon><color>50DC783C</color></IconStyle></Style></Placemark><Placemark targetId="0"><name>TUCSAWHATCHEE CREEK NEAR HAWKINSVILLE, GA</name><ExtendedData/><Point><coordinates>-83.5016667,32.23944444</coordinates></Point><Style id="ID"><IconStyle id="ID"><Icon><href>http://maps.google.com/mapfiles/kml/paddle/purple-circle.png</href></Icon><color>50DC783C</color></IconStyle></Style></Placemark><Placemark targetId="0"><name>OCMULGEE RIVER AT ABBEVILLE, GA</name><ExtendedData/><Point><coordinates>-83.2784899,31.996567</coordinates></Point><Style id="ID"><IconStyle id="ID"><Icon><href>http://maps.google.com/mapfiles/kml/paddle/purple-circle.png</href></Icon><color>50DC783C</color></IconStyle></Style></Placemark><Placemark targetId="0"><name>OCMULGEE RIVER AT ABBEVILLE, GA</name><ExtendedData/><Point><coordinates>-83.2784899,31.996567</coordinates></Point><Style id="ID"><IconStyle id="ID"><Icon><href>http://maps.google.com/mapfiles/kml/paddle/purple-circle.png</href></Icon><color>50DC783C</color></IconStyle></Style></Placemark><Placemark targetId="0"><name>OCMULGEE RIVER AT LUMBER CITY, GA</name><ExtendedData/><Point><coordinates>-82.6740274,31.9201826</coordinates></Point><Style id="ID"><IconStyle id="ID"><Icon><href>http://maps.google.com/mapfiles/kml/paddle/purple-circle.png</href></Icon><color>50DC783C</color></IconStyle></Style></Placemark><Placemark targetId="0"><name>OCMULGEE RIVER AT LUMBER CITY, GA</name><ExtendedData/><Point><coordinates>-82.6740274,31.9201826</coordinates></Point><Style id="ID"><IconStyle id="ID"><Icon><href>http://maps.google.com/mapfiles/kml/paddle/purple-circle.png</href></Icon><color>50DC783C</color></IconStyle></Style></Placemark><Placemark targetId="0"><name>LITTLE OCMULGEE RIVER AT GA 149, AT SCOTLAND, GA</name><ExtendedData/><Point><coordinates>-82.8156974,32.0523988</coordinates></Point><Style id="ID"><IconStyle id="ID"><Icon><href>http://maps.google.com/mapfiles/kml/paddle/purple-circle.png</href></Icon><color>50DC783C</color></IconStyle></Style></Placemark><Placemark targetId="0"><name>LITTLE OCMULGEE RIVER AT GA 149, AT SCOTLAND, GA</name><ExtendedData/><Point><coordinates>-82.8156974,32.0523988</coordinates></Point><Style id="ID"><IconStyle id="ID"><Icon><href>http://maps.google.com/mapfiles/kml/paddle/purple-circle.png</href></Icon><color>50DC783C</color></IconStyle></Style></Placemark><Placemark targetId="0"><name>TURNPIKE CREEK NEAR MCRAE, GA</name><ExtendedData/><Point><coordinates>-82.9219444,31.99138889</coordinates></Point><Style id="ID"><IconStyle id="ID"><Icon><href>http://maps.google.com/mapfiles/kml/paddle/purple-circle.png</href></Icon><color>50DC783C</color></IconStyle></Style></Placemark><Placemark targetId="0"><name>TURNPIKE CREEK NEAR MCRAE, GA</name><ExtendedData/><Point><coordinates>-82.9219444,31.99138889</coordinates></Point><Style id="ID"><IconStyle id="ID"><Icon><href>http://maps.google.com/mapfiles/kml/paddle/purple-circle.png</href></Icon><color>50DC783C</color></IconStyle></Style></Placemark><Placemark targetId="0"><name>WHEELER CREEK AT BILL CHEEK ROAD, NEAR AUBURN, GA</name><ExtendedData/><Point><coordinates>-83.8546217,34.0823272</coordinates></Point><Style id="ID"><IconStyle id="ID"><Icon><href>http://maps.google.com/mapfiles/kml/paddle/purple-circle.png</href></Icon><color>50DC783C</color></IconStyle></Style></Placemark><Placemark targetId="0"><name>WHEELER CREEK AT BILL CHEEK ROAD, NEAR AUBURN, GA</name><ExtendedData/><Point><coordinates>-83.8546217,34.0823272</coordinates></Point><Style id="ID"><IconStyle id="ID"><Icon><href>http://maps.google.com/mapfiles/kml/paddle/purple-circle.png</href></Icon><color>50DC783C</color></IconStyle></Style></Placemark><Placemark targetId="0"><name>MULBERRY CREEK NEAR WINDER, GA</name><ExtendedData/><Point><coordinates>-83.7115595,34.0459422</coordinates></Point><Style id="ID"><IconStyle id="ID"><Icon><href>http://maps.google.com/mapfiles/kml/paddle/purple-circle.png</href></Icon><color>50DC783C</color></IconStyle></Style></Placemark><Placemark targetId="0"><name>MULBERRY CREEK NEAR WINDER, GA</name><ExtendedData/><Point><coordinates>-83.7115595,34.0459422</coordinates></Point><Style id="ID"><IconStyle id="ID"><Icon><href>http://maps.google.com/mapfiles/kml/paddle/purple-circle.png</href></Icon><color>50DC783C</color></IconStyle></Style></Placemark><Placemark targetId="0"><name>MIDDLE OCONEE RIVER NEAR ARCADE, GA</name><ExtendedData/><Point><coordinates>-83.5633333,34.03166667</coordinates></Point><Style id="ID"><IconStyle id="ID"><Icon><href>http://maps.google.com/mapfiles/kml/paddle/purple-circle.png</href></Icon><color>50DC783C</color></IconStyle></Style></Placemark><Placemark targetId="0"><name>MIDDLE OCONEE RIVER NEAR ARCADE, GA</name><ExtendedData/><Point><coordinates>-83.5633333,34.03166667</coordinates></Point><Style id="ID"><IconStyle id="ID"><Icon><href>http://maps.google.com/mapfiles/kml/paddle/purple-circle.png</href></Icon><color>50DC783C</color></IconStyle></Style></Placemark><Placemark targetId="0"><name>MIDDLE OCONEE RIVER NEAR ATHENS, GA</name><ExtendedData/><Point><coordinates>-83.4227778,33.94666667</coordinates></Point><Style id="ID"><IconStyle id="ID"><Icon><href>http://maps.google.com/mapfiles/kml/paddle/purple-circle.png</href></Icon><color>50DC783C</color></IconStyle></Style></Placemark><Placemark targetId="0"><name>MIDDLE OCONEE RIVER NEAR ATHENS, GA</name><ExtendedData/><Point><coordinates>-83.4227778,33.94666667</coordinates></Point><Style id="ID"><IconStyle id="ID"><Icon><href>http://maps.google.com/mapfiles/kml/paddle/purple-circle.png</href></Icon><color>50DC783C</color></IconStyle></Style></Placemark><Placemark targetId="0"><name>NORTH OCONEE R AT WOODBRIDGE RD, NEAR COMMERCE, GA</name><ExtendedData/><Point><coordinates>-83.5158333,34.20027778</coordinates></Point><Style id="ID"><IconStyle id="ID"><Icon><href>http://maps.google.com/mapfiles/kml/paddle/purple-circle.png</href></Icon><color>50DC783C</color></IconStyle></Style></Placemark><Placemark targetId="0"><name>NORTH OCONEE R AT WOODBRIDGE RD, NEAR COMMERCE, GA</name><ExtendedData/><Point><coordinates>-83.5158333,34.20027778</coordinates></Point><Style id="ID"><IconStyle id="ID"><Icon><href>http://maps.google.com/mapfiles/kml/paddle/purple-circle.png</href></Icon><color>50DC783C</color></IconStyle></Style></Placemark><Placemark targetId="0"><name>PARKS CREEK AT LYLE FIELD RD NR JEFFERSON, GA</name><ExtendedData/><Point><coordinates>-83.5250944,34.1620583</coordinates></Point><Style id="ID"><IconStyle id="ID"><Icon><href>http://maps.google.com/mapfiles/kml/paddle/purple-circle.png</href></Icon><color>50DC783C</color></IconStyle></Style></Placemark><Placemark targetId="0"><name>NORTH OCONEE RIVER AT COLLEGE ST, AT ATHENS, GA</name><ExtendedData/><Point><coordinates>-83.37738,33.96983658</coordinates></Point><Style id="ID"><IconStyle id="ID"><Icon><href>http://maps.google.com/mapfiles/kml/paddle/purple-circle.png</href></Icon><color>50DC783C</color></IconStyle></Style></Placemark><Placemark targetId="0"><name>NORTH OCONEE RIVER AT COLLEGE ST, AT ATHENS, GA</name><ExtendedData/><Point><coordinates>-83.37738,33.96983658</coordinates></Point><Style id="ID"><IconStyle id="ID"><Icon><href>http://maps.google.com/mapfiles/kml/paddle/purple-circle.png</href></Icon><color>50DC783C</color></IconStyle></Style></Placemark><Placemark targetId="0"><name>OCONEE RIVER NEAR PENFIELD, GA</name><ExtendedData/><Point><coordinates>-83.2954357,33.72123385</coordinates></Point><Style id="ID"><IconStyle id="ID"><Icon><href>http://maps.google.com/mapfiles/kml/paddle/purple-circle.png</href></Icon><color>50DC783C</color></IconStyle></Style></Placemark><Placemark targetId="0"><name>OCONEE RIVER NEAR PENFIELD, GA</name><ExtendedData/><Point><coordinates>-83.2954357,33.72123385</coordinates></Point><Style id="ID"><IconStyle id="ID"><Icon><href>http://maps.google.com/mapfiles/kml/paddle/purple-circle.png</href></Icon><color>50DC783C</color></IconStyle></Style></Placemark><Placemark targetId="0"><name>APALACHEE RIVER AT FENCE ROAD, NEAR DACULA, GA</name><ExtendedData/><Point><coordinates>-83.894068,34.01038289</coordinates></Point><Style id="ID"><IconStyle id="ID"><Icon><href>http://maps.google.com/mapfiles/kml/paddle/purple-circle.png</href></Icon><color>50DC783C</color></IconStyle></Style></Placemark><Placemark targetId="0"><name>APALACHEE RIVER AT FENCE ROAD, NEAR DACULA, GA</name><ExtendedData/><Point><coordinates>-83.894068,34.01038289</coordinates></Point><Style id="ID"><IconStyle id="ID"><Icon><href>http://maps.google.com/mapfiles/kml/paddle/purple-circle.png</href></Icon><color>50DC783C</color></IconStyle></Style></Placemark><Placemark targetId="0"><name>APALACHEE RIVER NEAR BOSTWICK, GA</name><ExtendedData/><Point><coordinates>-83.4740513,33.78817637</coordinates></Point><Style id="ID"><IconStyle id="ID"><Icon><href>http://maps.google.com/mapfiles/kml/paddle/purple-circle.png</href></Icon><color>50DC783C</color></IconStyle></Style></Placemark><Placemark targetId="0"><name>APALACHEE RIVER NEAR BOSTWICK, GA</name><ExtendedData/><Point><coordinates>-83.4740513,33.78817637</coordinates></Point><Style id="ID"><IconStyle id="ID"><Icon><href>http://maps.google.com/mapfiles/kml/paddle/purple-circle.png</href></Icon><color>50DC783C</color></IconStyle></Style></Placemark><Placemark targetId="0"><name>LITTLE RIVER AT NEWBORN RD NEAR NEWBORN, GA</name><ExtendedData/><Point><coordinates>-83.6665278,33.5563611</coordinates></Point><Style id="ID"><IconStyle id="ID"><Icon><href>http://maps.google.com/mapfiles/kml/paddle/purple-circle.png</href></Icon><color>50DC783C</color></IconStyle></Style></Placemark><Placemark targetId="0"><name>LITTLE RIVER AT NEWBORN RD NEAR NEWBORN, GA</name><ExtendedData/><Point><coordinates>-83.6665278,33.5563611</coordinates></Point><Style id="ID"><IconStyle id="ID"><Icon><href>http://maps.google.com/mapfiles/kml/paddle/purple-circle.png</href></Icon><color>50DC783C</color></IconStyle></Style></Placemark><Placemark targetId="0"><name>LITTLE RIVER NEAR EATONTON, GA</name><ExtendedData/><Point><coordinates>-83.4371088,33.3140213</coordinates></Point><Style id="ID"><IconStyle id="ID"><Icon><href>http://maps.google.com/mapfiles/kml/paddle/purple-circle.png</href></Icon><color>50DC783C</color></IconStyle></Style></Placemark><Placemark targetId="0"><name>LITTLE RIVER NEAR EATONTON, GA</name><ExtendedData/><Point><coordinates>-83.4371088,33.3140213</coordinates></Point><Style id="ID"><IconStyle id="ID"><Icon><href>http://maps.google.com/mapfiles/kml/paddle/purple-circle.png</href></Icon><color>50DC783C</color></IconStyle></Style></Placemark><Placemark targetId="0"><name>MURDER CREEK BELOW EATONTON, GA</name><ExtendedData/><Point><coordinates>-83.4812762,33.25235506</coordinates></Point><Style id="ID"><IconStyle id="ID"><Icon><href>http://maps.google.com/mapfiles/kml/paddle/purple-circle.png</href></Icon><color>50DC783C</color></IconStyle></Style></Placemark><Placemark targetId="0"><name>MURDER CREEK BELOW EATONTON, GA</name><ExtendedData/><Point><coordinates>-83.4812762,33.25235506</coordinates></Point><Style id="ID"><IconStyle id="ID"><Icon><href>http://maps.google.com/mapfiles/kml/paddle/purple-circle.png</href></Icon><color>50DC783C</color></IconStyle></Style></Placemark><Placemark targetId="0"><name>OCONEE RIVER AT MILLEDGEVILLE, GA</name><ExtendedData/><Point><coordinates>-83.215432,33.0895876</coordinates></Point><Style id="ID"><IconStyle id="ID"><Icon><href>http://maps.google.com/mapfiles/kml/paddle/purple-circle.png</href></Icon><color>50DC783C</color></IconStyle></Style></Placemark><Placemark targetId="0"><name>OCONEE RIVER AT MILLEDGEVILLE, GA</name><ExtendedData/><Point><coordinates>-83.215432,33.0895876</coordinates></Point><Style id="ID"><IconStyle id="ID"><Icon><href>http://maps.google.com/mapfiles/kml/paddle/purple-circle.png</href></Icon><color>50DC783C</color></IconStyle></Style></Placemark><Placemark targetId="0"><name>OCONEE RIVER AT AVANT MINE, NEAR OCONEE, GA</name><ExtendedData/><Point><coordinates>-83.0668149,32.93987333</coordinates></Point><Style id="ID"><IconStyle id="ID"><Icon><href>http://maps.google.com/mapfiles/kml/paddle/purple-circle.png</href></Icon><color>50DC783C</color></IconStyle></Style></Placemark><Placemark targetId="0"><name>OCONEE RIVER AT AVANT MINE, NEAR OCONEE, GA</name><ExtendedData/><Point><coordinates>-83.0668149,32.93987333</coordinates></Point><Style id="ID"><IconStyle id="ID"><Icon><href>http://maps.google.com/mapfiles/kml/paddle/purple-circle.png</href></Icon><color>50DC783C</color></IconStyle></Style></Placemark><Placemark targetId="0"><name>BUFFALO CREEK AT GA 272, NEAR OCONEE, GA</name><ExtendedData/><Point><coordinates>-82.9609774,32.89126617</coordinates></Point><Style id="ID"><IconStyle id="ID"><Icon><href>http://maps.google.com/mapfiles/kml/paddle/purple-circle.png</href></Icon><color>50DC783C</color></IconStyle></Style></Placemark><Placemark targetId="0"><name>BUFFALO CREEK AT GA 272, NEAR OCONEE, GA</name><ExtendedData/><Point><coordinates>-82.9609774,32.89126617</coordinates></Point><Style id="ID"><IconStyle id="ID"><Icon><href>http://maps.google.com/mapfiles/kml/paddle/purple-circle.png</href></Icon><color>50DC783C</color></IconStyle></Style></Placemark><Placemark targetId="0"><name>COMMISSIONER CREEK AT US 441, AT MCINTYRE, GA</name><ExtendedData/><Point><coordinates>-83.1929324,32.8498693</coordinates></Point><Style id="ID"><IconStyle id="ID"><Icon><href>http://maps.google.com/mapfiles/kml/paddle/purple-circle.png</href></Icon><color>50DC783C</color></IconStyle></Style></Placemark><Placemark targetId="0"><name>COMMISSIONER CREEK AT US 441, AT MCINTYRE, GA</name><ExtendedData/><Point><coordinates>-83.1929324,32.8498693</coordinates></Point><Style id="ID"><IconStyle id="ID"><Icon><href>http://maps.google.com/mapfiles/kml/paddle/purple-circle.png</href></Icon><color>50DC783C</color></IconStyle></Style></Placemark><Placemark targetId="0"><name>OCONEE RIVER NEAR OCONEE, GA</name><ExtendedData/><Point><coordinates>-82.95708859,32.78737974</coordinates></Point><Style id="ID"><IconStyle id="ID"><Icon><href>http://maps.google.com/mapfiles/kml/paddle/purple-circle.png</href></Icon><color>50DC783C</color></IconStyle></Style></Placemark><Placemark targetId="0"><name>OCONEE RIVER NEAR OCONEE, GA</name><ExtendedData/><Point><coordinates>-82.95708859,32.78737974</coordinates></Point><Style id="ID"><IconStyle id="ID"><Icon><href>http://maps.google.com/mapfiles/kml/paddle/purple-circle.png</href></Icon><color>50DC783C</color></IconStyle></Style></Placemark><Placemark targetId="0"><name>BIG SANDY CREEK AT US 441, NEAR IRWINTON, GA</name><ExtendedData/><Point><coordinates>-83.1679321,32.76653786</coordinates></Point><Style id="ID"><IconStyle id="ID"><Icon><href>http://maps.google.com/mapfiles/kml/paddle/purple-circle.png</href></Icon><color>50DC783C</color></IconStyle></Style></Placemark><Placemark targetId="0"><name>BIG SANDY CREEK AT US 441, NEAR IRWINTON, GA</name><ExtendedData/><Point><coordinates>-83.1679321,32.76653786</coordinates></Point><Style id="ID"><IconStyle id="ID"><Icon><href>http://maps.google.com/mapfiles/kml/paddle/purple-circle.png</href></Icon><color>50DC783C</color></IconStyle></Style></Placemark><Placemark targetId="0"><name>OCONEE RIVER AT DUBLIN, GA</name><ExtendedData/><Point><coordinates>-82.894587,32.54461117</coordinates></Point><Style id="ID"><IconStyle id="ID"><Icon><href>http://maps.google.com/mapfiles/kml/paddle/purple-circle.png</href></Icon><color>50DC783C</color></IconStyle></Style></Placemark><Placemark targetId="0"><name>OCONEE RIVER AT DUBLIN, GA</name><ExtendedData/><Point><coordinates>-82.894587,32.54461117</coordinates></Point><Style id="ID"><IconStyle id="ID"><Icon><href>http://maps.google.com/mapfiles/kml/paddle/purple-circle.png</href></Icon><color>50DC783C</color></IconStyle></Style></Placemark><Placemark targetId="0"><name>OCONEE RIVER NEAR MOUNT VERNON, GA</name><ExtendedData/><Point><coordinates>-82.6331903,32.19129079</coordinates></Point><Style id="ID"><IconStyle id="ID"><Icon><href>http://maps.google.com/mapfiles/kml/paddle/purple-circle.png</href></Icon><color>50DC783C</color></IconStyle></Style></Placemark><Placemark targetId="0"><name>OCONEE RIVER NEAR MOUNT VERNON, GA</name><ExtendedData/><Point><coordinates>-82.6331903,32.19129079</coordinates></Point><Style id="ID"><IconStyle id="ID"><Icon><href>http://maps.google.com/mapfiles/kml/paddle/purple-circle.png</href></Icon><color>50DC783C</color></IconStyle></Style></Placemark><Placemark targetId="0"><name>ALTAMAHA RIVER AT US 221, NR CHARLOTTEVILLE, GA</name><ExtendedData/><Point><coordinates>-82.5170765,31.9579659</coordinates></Point><Style id="ID"><IconStyle id="ID"><Icon><href>http://maps.google.com/mapfiles/kml/paddle/purple-circle.png</href></Icon><color>50DC783C</color></IconStyle></Style></Placemark><Placemark targetId="0"><name>ALTAMAHA RIVER AT US 221, NR CHARLOTTEVILLE, GA</name><ExtendedData/><Point><coordinates>-82.5170765,31.9579659</coordinates></Point><Style id="ID"><IconStyle id="ID"><Icon><href>http://maps.google.com/mapfiles/kml/paddle/purple-circle.png</href></Icon><color>50DC783C</color></IconStyle></Style></Placemark><Placemark targetId="0"><name>ALTAMAHA RIVER NEAR BAXLEY, GA</name><ExtendedData/><Point><coordinates>-82.3534601,31.9390829</coordinates></Point><Style id="ID"><IconStyle id="ID"><Icon><href>http://maps.google.com/mapfiles/kml/paddle/purple-circle.png</href></Icon><color>50DC783C</color></IconStyle></Style></Placemark><Placemark targetId="0"><name>ALTAMAHA RIVER NEAR BAXLEY, GA</name><ExtendedData/><Point><coordinates>-82.3534601,31.9390829</coordinates></Point><Style id="ID"><IconStyle id="ID"><Icon><href>http://maps.google.com/mapfiles/kml/paddle/purple-circle.png</href></Icon><color>50DC783C</color></IconStyle></Style></Placemark><Placemark targetId="0"><name>OHOOPEE RIVER AT GA 297, NEAR SWAINSBORO, GA</name><ExtendedData/><Point><coordinates>-82.3820719,32.44044918</coordinates></Point><Style id="ID"><IconStyle id="ID"><Icon><href>http://maps.google.com/mapfiles/kml/paddle/purple-circle.png</href></Icon><color>50DC783C</color></IconStyle></Style></Placemark><Placemark targetId="0"><name>OHOOPEE RIVER AT GA 297, NEAR SWAINSBORO, GA</name><ExtendedData/><Point><coordinates>-82.3820719,32.44044918</coordinates></Point><Style id="ID"><IconStyle id="ID"><Icon><href>http://maps.google.com/mapfiles/kml/paddle/purple-circle.png</href></Icon><color>50DC783C</color></IconStyle></Style></Placemark><Placemark targetId="0"><name>OHOOPEE RIVER NEAR REIDSVILLE, GA</name><ExtendedData/><Point><coordinates>-82.1773432,32.07852776</coordinates></Point><Style id="ID"><IconStyle id="ID"><Icon><href>http://maps.google.com/mapfiles/kml/paddle/purple-circle.png</href></Icon><color>50DC783C</color></IconStyle></Style></Placemark><Placemark targetId="0"><name>OHOOPEE RIVER NEAR REIDSVILLE, GA</name><ExtendedData/><Point><coordinates>-82.1773432,32.07852776</coordinates></Point><Style id="ID"><IconStyle id="ID"><Icon><href>http://maps.google.com/mapfiles/kml/paddle/purple-circle.png</href></Icon><color>50DC783C</color></IconStyle></Style></Placemark><Placemark targetId="0"><name>ALTAMAHA RIVER AT DOCTORTOWN, GA</name><ExtendedData/><Point><coordinates>-81.827892,31.6546586</coordinates></Point><Style id="ID"><IconStyle id="ID"><Icon><href>http://maps.google.com/mapfiles/kml/paddle/purple-circle.png</href></Icon><color>50DC783C</color></IconStyle></Style></Placemark><Placemark targetId="0"><name>ALTAMAHA RIVER AT DOCTORTOWN, GA</name><ExtendedData/><Point><coordinates>-81.827892,31.6546586</coordinates></Point><Style id="ID"><IconStyle id="ID"><Icon><href>http://maps.google.com/mapfiles/kml/paddle/purple-circle.png</href></Icon><color>50DC783C</color></IconStyle></Style></Placemark><Placemark targetId="0"><name>ALTAMAHA RIVER NEAR EVERETT CITY, GA</name><ExtendedData/><Point><coordinates>-81.6053858,31.42716717</coordinates></Point><Style id="ID"><IconStyle id="ID"><Icon><href>http://maps.google.com/mapfiles/kml/paddle/purple-circle.png</href></Icon><color>50DC783C</color></IconStyle></Style></Placemark><Placemark targetId="0"><name>ALTAMAHA RIVER NEAR EVERETT CITY, GA</name><ExtendedData/><Point><coordinates>-81.6053858,31.42716717</coordinates></Point><Style id="ID"><IconStyle id="ID"><Icon><href>http://maps.google.com/mapfiles/kml/paddle/purple-circle.png</href></Icon><color>50DC783C</color></IconStyle></Style></Placemark><Placemark targetId="0"><name>BRUNSWICK RIVER AT BRUNSWICK, GA</name><ExtendedData/><Point><coordinates>-81.48287748,31.12189788</coordinates></Point><Style id="ID"><IconStyle id="ID"><Icon><href>http://maps.google.com/mapfiles/kml/paddle/purple-circle.png</href></Icon><color>50DC783C</color></IconStyle></Style></Placemark><Placemark targetId="0"><name>BRUNSWICK RIVER AT ST. SIMONS ISLAND, GA</name><ExtendedData/><Point><coordinates>-81.3964856,31.13356523</coordinates></Point><Style id="ID"><IconStyle id="ID"><Icon><href>http://maps.google.com/mapfiles/kml/paddle/purple-circle.png</href></Icon><color>50DC783C</color></IconStyle></Style></Placemark><Placemark targetId="0"><name>SATILLA RIVER AT GA 158, NEAR WAYCROSS, GA</name><ExtendedData/><Point><coordinates>-82.5612501,31.30270937</coordinates></Point><Style id="ID"><IconStyle id="ID"><Icon><href>http://maps.google.com/mapfiles/kml/paddle/purple-circle.png</href></Icon><color>50DC783C</color></IconStyle></Style></Placemark><Placemark targetId="0"><name>SATILLA RIVER AT GA 158, NEAR WAYCROSS, GA</name><ExtendedData/><Point><coordinates>-82.5612501,31.30270937</coordinates></Point><Style id="ID"><IconStyle id="ID"><Icon><href>http://maps.google.com/mapfiles/kml/paddle/purple-circle.png</href></Icon><color>50DC783C</color></IconStyle></Style></Placemark><Placemark targetId="0"><name>SATILLA RIVER NEAR WAYCROSS, GA</name><ExtendedData/><Point><coordinates>-82.3245711,31.2382737</coordinates></Point><Style id="ID"><IconStyle id="ID"><Icon><href>http://maps.google.com/mapfiles/kml/paddle/purple-circle.png</href></Icon><color>50DC783C</color></IconStyle></Style></Placemark><Placemark targetId="0"><name>SATILLA RIVER NEAR WAYCROSS, GA</name><ExtendedData/><Point><coordinates>-82.3245711,31.2382737</coordinates></Point><Style id="ID"><IconStyle id="ID"><Icon><href>http://maps.google.com/mapfiles/kml/paddle/purple-circle.png</href></Icon><color>50DC783C</color></IconStyle></Style></Placemark><Placemark targetId="0"><name>ALABAHA RIVER AT GA 203, NEAR BLACKSHEAR, GA</name><ExtendedData/><Point><coordinates>-82.288736,31.37549219</coordinates></Point><Style id="ID"><IconStyle id="ID"><Icon><href>http://maps.google.com/mapfiles/kml/paddle/purple-circle.png</href></Icon><color>50DC783C</color></IconStyle></Style></Placemark><Placemark targetId="0"><name>ALABAHA RIVER AT GA 203, NEAR BLACKSHEAR, GA</name><ExtendedData/><Point><coordinates>-82.288736,31.37549219</coordinates></Point><Style id="ID"><IconStyle id="ID"><Icon><href>http://maps.google.com/mapfiles/kml/paddle/purple-circle.png</href></Icon><color>50DC783C</color></IconStyle></Style></Placemark><Placemark targetId="0"><name>LITTLE SATILLA RIVER NEAR OFFERMAN, GA</name><ExtendedData/><Point><coordinates>-82.054561,31.45132604</coordinates></Point><Style id="ID"><IconStyle id="ID"><Icon><href>http://maps.google.com/mapfiles/kml/paddle/purple-circle.png</href></Icon><color>50DC783C</color></IconStyle></Style></Placemark><Placemark targetId="0"><name>LITTLE SATILLA RIVER NEAR OFFERMAN, GA</name><ExtendedData/><Point><coordinates>-82.054561,31.45132604</coordinates></Point><Style id="ID"><IconStyle id="ID"><Icon><href>http://maps.google.com/mapfiles/kml/paddle/purple-circle.png</href></Icon><color>50DC783C</color></IconStyle></Style></Placemark><Placemark targetId="0"><name>SATILLA RIVER AT ATKINSON, GA</name><ExtendedData/><Point><coordinates>-81.8656651,31.22064144</coordinates></Point><Style id="ID"><IconStyle id="ID"><Icon><href>http://maps.google.com/mapfiles/kml/paddle/purple-circle.png</href></Icon><color>50DC783C</color></IconStyle></Style></Placemark><Placemark targetId="0"><name>SATILLA RIVER AT ATKINSON, GA</name><ExtendedData/><Point><coordinates>-81.8656651,31.22064144</coordinates></Point><Style id="ID"><IconStyle id="ID"><Icon><href>http://maps.google.com/mapfiles/kml/paddle/purple-circle.png</href></Icon><color>50DC783C</color></IconStyle></Style></Placemark><Placemark targetId="0"><name>SATILLA RIVER AT US 17, AT WOODBINE, GA</name><ExtendedData/><Point><coordinates>-81.725662,30.97467607</coordinates></Point><Style id="ID"><IconStyle id="ID"><Icon><href>http://maps.google.com/mapfiles/kml/paddle/purple-circle.png</href></Icon><color>50DC783C</color></IconStyle></Style></Placemark><Placemark targetId="0"><name>SATILLA RIVER AT US 17, AT WOODBINE, GA</name><ExtendedData/><Point><coordinates>-81.725662,30.97467607</coordinates></Point><Style id="ID"><IconStyle id="ID"><Icon><href>http://maps.google.com/mapfiles/kml/paddle/purple-circle.png</href></Icon><color>50DC783C</color></IconStyle></Style></Placemark><Placemark targetId="0"><name>ST MARY'S RIVER AT I-95, NEAR KINGSLAND, GA</name><ExtendedData/><Point><coordinates>-81.6542683,30.744124</coordinates></Point><Style id="ID"><IconStyle id="ID"><Icon><href>http://maps.google.com/mapfiles/kml/paddle/purple-circle.png</href></Icon><color>50DC783C</color></IconStyle></Style></Placemark><Placemark targetId="0"><name>ST MARY'S RIVER AT I-95, NEAR KINGSLAND, GA</name><ExtendedData/><Point><coordinates>-81.6542683,30.744124</coordinates></Point><Style id="ID"><IconStyle id="ID"><Icon><href>http://maps.google.com/mapfiles/kml/paddle/purple-circle.png</href></Icon><color>50DC783C</color></IconStyle></Style></Placemark><Placemark targetId="0"><name>SUWANNEE RIVER ABOVE FARGO, GA</name><ExtendedData/><Point><coordinates>-82.5391667,30.7075</coordinates></Point><Style id="ID"><IconStyle id="ID"><Icon><href>http://maps.google.com/mapfiles/kml/paddle/purple-circle.png</href></Icon><color>50DC783C</color></IconStyle></Style></Placemark><Placemark targetId="0"><name>SUWANNEE RIVER AT US 441, AT FARGO, GA</name><ExtendedData/><Point><coordinates>-82.5605556,30.68055556</coordinates></Point><Style id="ID"><IconStyle id="ID"><Icon><href>http://maps.google.com/mapfiles/kml/paddle/purple-circle.png</href></Icon><color>50DC783C</color></IconStyle></Style></Placemark><Placemark targetId="0"><name>SUWANNEE RIVER AT US 441, AT FARGO, GA</name><ExtendedData/><Point><coordinates>-82.5605556,30.68055556</coordinates></Point><Style id="ID"><IconStyle id="ID"><Icon><href>http://maps.google.com/mapfiles/kml/paddle/purple-circle.png</href></Icon><color>50DC783C</color></IconStyle></Style></Placemark><Placemark targetId="0"><name>ALAPAHA RIVER AT GA 125/32 NEAR IRWINVILLE, GA</name><ExtendedData/><Point><coordinates>-83.4179382,31.63129589</coordinates></Point><Style id="ID"><IconStyle id="ID"><Icon><href>http://maps.google.com/mapfiles/kml/paddle/purple-circle.png</href></Icon><color>50DC783C</color></IconStyle></Style></Placemark><Placemark targetId="0"><name>ALAPAHA RIVER AT GA 125/32 NEAR IRWINVILLE, GA</name><ExtendedData/><Point><coordinates>-83.4179382,31.63129589</coordinates></Point><Style id="ID"><IconStyle id="ID"><Icon><href>http://maps.google.com/mapfiles/kml/paddle/purple-circle.png</href></Icon><color>50DC783C</color></IconStyle></Style></Placemark><Placemark targetId="0"><name>ALAPAHA RIVER NEAR ALAPAHA, GA</name><ExtendedData/><Point><coordinates>-83.1923758,31.3843626</coordinates></Point><Style id="ID"><IconStyle id="ID"><Icon><href>http://maps.google.com/mapfiles/kml/paddle/purple-circle.png</href></Icon><color>50DC783C</color></IconStyle></Style></Placemark><Placemark targetId="0"><name>ALAPAHA RIVER NEAR ALAPAHA, GA</name><ExtendedData/><Point><coordinates>-83.1923758,31.3843626</coordinates></Point><Style id="ID"><IconStyle id="ID"><Icon><href>http://maps.google.com/mapfiles/kml/paddle/purple-circle.png</href></Icon><color>50DC783C</color></IconStyle></Style></Placemark><Placemark targetId="0"><name>ALAPAHA RIVER AT STATENVILLE, GA</name><ExtendedData/><Point><coordinates>-83.0331955,30.7041006</coordinates></Point><Style id="ID"><IconStyle id="ID"><Icon><href>http://maps.google.com/mapfiles/kml/paddle/purple-circle.png</href></Icon><color>50DC783C</color></IconStyle></Style></Placemark><Placemark targetId="0"><name>ALAPAHA RIVER AT STATENVILLE, GA</name><ExtendedData/><Point><coordinates>-83.0331955,30.7041006</coordinates></Point><Style id="ID"><IconStyle id="ID"><Icon><href>http://maps.google.com/mapfiles/kml/paddle/purple-circle.png</href></Icon><color>50DC783C</color></IconStyle></Style></Placemark><Placemark targetId="0"><name>WITHLACOOCHEE RIVER AT MCMILLAN RD,NEAR BEMISS, GA</name><ExtendedData/><Point><coordinates>-83.2684865,30.9526998</coordinates></Point><Style id="ID"><IconStyle id="ID"><Icon><href>http://maps.google.com/mapfiles/kml/paddle/purple-circle.png</href></Icon><color>50DC783C</color></IconStyle></Style></Placemark><Placemark targetId="0"><name>WITHLACOOCHEE RIVER AT MCMILLAN RD,NEAR BEMISS, GA</name><ExtendedData/><Point><coordinates>-83.2684865,30.9526998</coordinates></Point><Style id="ID"><IconStyle id="ID"><Icon><href>http://maps.google.com/mapfiles/kml/paddle/purple-circle.png</href></Icon><color>50DC783C</color></IconStyle></Style></Placemark><Placemark targetId="0"><name>WITHLACOOCHEE RIVER AT US 41 NEAR VALDOSTA, GA</name><ExtendedData/><Point><coordinates>-83.318765,30.89269959</coordinates></Point><Style id="ID"><IconStyle id="ID"><Icon><href>http://maps.google.com/mapfiles/kml/paddle/purple-circle.png</href></Icon><color>50DC783C</color></IconStyle></Style></Placemark><Placemark targetId="0"><name>LITTLE RIVER AT UPPER TY TY ROAD, NEAR TIFTON, GA</name><ExtendedData/><Point><coordinates>-83.5840559,31.48185048</coordinates></Point><Style id="ID"><IconStyle id="ID"><Icon><href>http://maps.google.com/mapfiles/kml/paddle/purple-circle.png</href></Icon><color>50DC783C</color></IconStyle></Style></Placemark><Placemark targetId="0"><name>LITTLE RIVER AT UPPER TY TY ROAD, NEAR TIFTON, GA</name><ExtendedData/><Point><coordinates>-83.5840559,31.48185048</coordinates></Point><Style id="ID"><IconStyle id="ID"><Icon><href>http://maps.google.com/mapfiles/kml/paddle/purple-circle.png</href></Icon><color>50DC783C</color></IconStyle></Style></Placemark><Placemark targetId="0"><name>LITTLE RIVER NEAR ADEL, GA</name><ExtendedData/><Point><coordinates>-83.5436111,31.15555556</coordinates></Point><Style id="ID"><IconStyle id="ID"><Icon><href>http://maps.google.com/mapfiles/kml/paddle/purple-circle.png</href></Icon><color>50DC783C</color></IconStyle></Style></Placemark><Placemark targetId="0"><name>LITTLE RIVER NEAR ADEL, GA</name><ExtendedData/><Point><coordinates>-83.5436111,31.15555556</coordinates></Point><Style id="ID"><IconStyle id="ID"><Icon><href>http://maps.google.com/mapfiles/kml/paddle/purple-circle.png</href></Icon><color>50DC783C</color></IconStyle></Style></Placemark><Placemark targetId="0"><name>LITTLE RIVER AT GA 122, NEAR HAHIRA, GA</name><ExtendedData/><Point><coordinates>-83.45821639,31.0010254</coordinates></Point><Style id="ID"><IconStyle id="ID"><Icon><href>http://maps.google.com/mapfiles/kml/paddle/purple-circle.png</href></Icon><color>50DC783C</color></IconStyle></Style></Placemark><Placemark targetId="0"><name>LITTLE RIVER AT GA 122, NEAR HAHIRA, GA</name><ExtendedData/><Point><coordinates>-83.45821639,31.0010254</coordinates></Point><Style id="ID"><IconStyle id="ID"><Icon><href>http://maps.google.com/mapfiles/kml/paddle/purple-circle.png</href></Icon><color>50DC783C</color></IconStyle></Style></Placemark><Placemark targetId="0"><name>WITHLACOOCHEE RIVER AT US 84, NEAR QUITMAN, GA</name><ExtendedData/><Point><coordinates>-83.4536111,30.79305556</coordinates></Point><Style id="ID"><IconStyle id="ID"><Icon><href>http://maps.google.com/mapfiles/kml/paddle/purple-circle.png</href></Icon><color>50DC783C</color></IconStyle></Style></Placemark><Placemark targetId="0"><name>WITHLACOOCHEE RIVER AT US 84, NEAR QUITMAN, GA</name><ExtendedData/><Point><coordinates>-83.4536111,30.79305556</coordinates></Point><Style id="ID"><IconStyle id="ID"><Icon><href>http://maps.google.com/mapfiles/kml/paddle/purple-circle.png</href></Icon><color>50DC783C</color></IconStyle></Style></Placemark><Placemark targetId="0"><name>OKAPILCO CREEK AT GA 333, NEAR QUITMAN, GA</name><ExtendedData/><Point><coordinates>-83.5625,30.82555556</coordinates></Point><Style id="ID"><IconStyle id="ID"><Icon><href>http://maps.google.com/mapfiles/kml/paddle/purple-circle.png</href></Icon><color>50DC783C</color></IconStyle></Style></Placemark><Placemark targetId="0"><name>OKAPILCO CREEK AT GA 333, NEAR QUITMAN, GA</name><ExtendedData/><Point><coordinates>-83.5625,30.82555556</coordinates></Point><Style id="ID"><IconStyle id="ID"><Icon><href>http://maps.google.com/mapfiles/kml/paddle/purple-circle.png</href></Icon><color>50DC783C</color></IconStyle></Style></Placemark><Placemark targetId="0"><name>OCHLOCKONEE RIVER AT GA 188, NEAR COOLIDGE, GA</name><ExtendedData/><Point><coordinates>-83.9391667,31.0022222</coordinates></Point><Style id="ID"><IconStyle id="ID"><Icon><href>http://maps.google.com/mapfiles/kml/paddle/purple-circle.png</href></Icon><color>50DC783C</color></IconStyle></Style></Placemark><Placemark targetId="0"><name>OCHLOCKONEE RIVER AT GA 188, NEAR COOLIDGE, GA</name><ExtendedData/><Point><coordinates>-83.9391667,31.0022222</coordinates></Point><Style id="ID"><IconStyle id="ID"><Icon><href>http://maps.google.com/mapfiles/kml/paddle/purple-circle.png</href></Icon><color>50DC783C</color></IconStyle></Style></Placemark><Placemark targetId="0"><name>OCHLOCKONEE RIVER NEAR THOMASVILLE, GA</name><ExtendedData/><Point><coordinates>-84.0454502,30.87574687</coordinates></Point><Style id="ID"><IconStyle id="ID"><Icon><href>http://maps.google.com/mapfiles/kml/paddle/purple-circle.png</href></Icon><color>50DC783C</color></IconStyle></Style></Placemark><Placemark targetId="0"><name>OCHLOCKONEE RIVER NEAR THOMASVILLE, GA</name><ExtendedData/><Point><coordinates>-84.0454502,30.87574687</coordinates></Point><Style id="ID"><IconStyle id="ID"><Icon><href>http://maps.google.com/mapfiles/kml/paddle/purple-circle.png</href></Icon><color>50DC783C</color></IconStyle></Style></Placemark><Placemark targetId="0"><name>LITTLE ATTAPULGUS CREEK AT ATTAPULGUS, GA</name><ExtendedData/><Point><coordinates>-84.4969444,30.73555556</coordinates></Point><Style id="ID"><IconStyle id="ID"><Icon><href>http://maps.google.com/mapfiles/kml/paddle/purple-circle.png</href></Icon><color>50DC783C</color></IconStyle></Style></Placemark><Placemark targetId="0"><name>LITTLE ATTAPULGUS CREEK AT ATTAPULGUS, GA</name><ExtendedData/><Point><coordinates>-84.4969444,30.73555556</coordinates></Point><Style id="ID"><IconStyle id="ID"><Icon><href>http://maps.google.com/mapfiles/kml/paddle/purple-circle.png</href></Icon><color>50DC783C</color></IconStyle></Style></Placemark><Placemark targetId="0"><name>CHATTAHOOCHEE RIVER AT HELEN, GA</name><ExtendedData/><Point><coordinates>-83.72888889,34.7008333</coordinates></Point><Style id="ID"><IconStyle id="ID"><Icon><href>http://maps.google.com/mapfiles/kml/paddle/purple-circle.png</href></Icon><color>50DC783C</color></IconStyle></Style></Placemark><Placemark targetId="0"><name>CHATTAHOOCHEE RIVER AT HELEN, GA</name><ExtendedData/><Point><coordinates>-83.72888889,34.7008333</coordinates></Point><Style id="ID"><IconStyle id="ID"><Icon><href>http://maps.google.com/mapfiles/kml/paddle/purple-circle.png</href></Icon><color>50DC783C</color></IconStyle></Style></Placemark><Placemark targetId="0"><name>CHATTAHOOCHEE RIVER NEAR LEAF, GA</name><ExtendedData/><Point><coordinates>-83.6357316,34.57704154</coordinates></Point><Style id="ID"><IconStyle id="ID"><Icon><href>http://maps.google.com/mapfiles/kml/paddle/purple-circle.png</href></Icon><color>50DC783C</color></IconStyle></Style></Placemark><Placemark targetId="0"><name>CHATTAHOOCHEE RIVER NEAR LEAF, GA</name><ExtendedData/><Point><coordinates>-83.6357316,34.57704154</coordinates></Point><Style id="ID"><IconStyle id="ID"><Icon><href>http://maps.google.com/mapfiles/kml/paddle/purple-circle.png</href></Icon><color>50DC783C</color></IconStyle></Style></Placemark><Placemark targetId="0"><name>SOQUE RIVER AT GA 197, NEAR CLARKESVILLE, GA</name><ExtendedData/><Point><coordinates>-83.52888889,34.6186111</coordinates></Point><Style id="ID"><IconStyle id="ID"><Icon><href>http://maps.google.com/mapfiles/kml/paddle/purple-circle.png</href></Icon><color>50DC783C</color></IconStyle></Style></Placemark><Placemark targetId="0"><name>SOQUE RIVER AT GA 197, NEAR CLARKESVILLE, GA</name><ExtendedData/><Point><coordinates>-83.52888889,34.6186111</coordinates></Point><Style id="ID"><IconStyle id="ID"><Icon><href>http://maps.google.com/mapfiles/kml/paddle/purple-circle.png</href></Icon><color>50DC783C</color></IconStyle></Style></Placemark><Placemark targetId="0"><name>CHATTAHOOCHEE RIVER NEAR CORNELIA, GA</name><ExtendedData/><Point><coordinates>-83.622775,34.5407222</coordinates></Point><Style id="ID"><IconStyle id="ID"><Icon><href>http://maps.google.com/mapfiles/kml/paddle/purple-circle.png</href></Icon><color>50DC783C</color></IconStyle></Style></Placemark><Placemark targetId="0"><name>CHATTAHOOCHEE RIVER NEAR CORNELIA, GA</name><ExtendedData/><Point><coordinates>-83.622775,34.5407222</coordinates></Point><Style id="ID"><IconStyle id="ID"><Icon><href>http://maps.google.com/mapfiles/kml/paddle/purple-circle.png</href></Icon><color>50DC783C</color></IconStyle></Style></Placemark><Placemark targetId="0"><name>CHESTATEE RIVER NEAR DAHLONEGA, GA</name><ExtendedData/><Point><coordinates>-83.9397222,34.52805556</coordinates></Point><Style id="ID"><IconStyle id="ID"><Icon><href>http://maps.google.com/mapfiles/kml/paddle/purple-circle.png</href></Icon><color>50DC783C</color></IconStyle></Style></Placemark><Placemark targetId="0"><name>CHESTATEE RIVER NEAR DAHLONEGA, GA</name><ExtendedData/><Point><coordinates>-83.9397222,34.52805556</coordinates></Point><Style id="ID"><IconStyle id="ID"><Icon><href>http://maps.google.com/mapfiles/kml/paddle/purple-circle.png</href></Icon><color>50DC783C</color></IconStyle></Style></Placemark><Placemark targetId="0"><name>CHATTAHOOCHEE RIVER (BUFORD DAM) NR BUFORD, GA</name><ExtendedData/><Point><coordinates>-84.0760222,34.16148807</coordinates></Point><Style id="ID"><IconStyle id="ID"><Icon><href>http://maps.google.com/mapfiles/kml/paddle/purple-circle.png</href></Icon><color>50DC783C</color></IconStyle></Style></Placemark><Placemark targetId="0"><name>CHATTAHOOCHEE RIVER AT BUFORD DAM, NEAR BUFORD, GA</name><ExtendedData/><Point><coordinates>-84.07888889,34.15694444</coordinates></Point><Style id="ID"><IconStyle id="ID"><Icon><href>http://maps.google.com/mapfiles/kml/paddle/purple-circle.png</href></Icon><color>50DC783C</color></IconStyle></Style></Placemark><Placemark targetId="0"><name>CHATTAHOOCHEE RIVER AT BUFORD DAM, NEAR BUFORD, GA</name><ExtendedData/><Point><coordinates>-84.07888889,34.15694444</coordinates></Point><Style id="ID"><IconStyle id="ID"><Icon><href>http://maps.google.com/mapfiles/kml/paddle/purple-circle.png</href></Icon><color>50DC783C</color></IconStyle></Style></Placemark>